{"Building ID":160354,"Address":"750 N Dearborn St","Zip":60654,"Cohort - Sector":"Residential","Cohort - Size":"> 250000 Sq Ft","Verification Year":2024.0,"Community Area Name":"Near North Side","Community Area Number":8,"Ward":2.0,"Latitude":41.896027,"Longitude":-87.629782,"Location":"(41.896027, -87.629782)"}
{"Building ID":251604,"Address":"1010 E 72Nd St","Zip":60619,"Cohort - Sector":"Commercial","Cohort - Size":"> 50000 Sq Ft","Verification Year":2025.0,"Community Area Name":"Greater Grand Crossing","Community Area Number":69,"Ward":5.0,"Latitude":41.76457079,"Longitude":-87.60030731,"Location":"(41.76457079, -87.60030731)"}
{"Building ID":260032,"Address":"1616  E 50Th Pl","Zip":60615,"Cohort - Sector":"Residential","Cohort - Size":"> 50000 Sq Ft","Verification Year":2025.0,"Community Area Name":"Kenwood","Community Area Number":39,"Ward":5.0,"Latitude":41.80224043,"Longitude":-87.60332678,"Location":"(41.80224043, -87.60332678)"}
{"Building ID":251522,"Address":"8324 S Racine Ave","Zip":60620,"Cohort - Sector":"Commercial","Cohort - Size":"> 50000 Sq Ft","Verification Year":2023.0,"Community Area Name":"Auburn Gresham","Community Area Number":71,"Ward":21.0,"Latitude":41.74243045,"Longitude":-87.65386181,"Location":"(41.74243045, -87.65386181)"}
{"Building ID":243246,"Address":"1255 N Sandburg Ter","Zip":60610,"Cohort - Sector":"Residential","Cohort - Size":"> 250000 Sq Ft","Verification Year":2024.0,"Community Area Name":"Near North Side","Community Area Number":8,"Ward":2.0,"Latitude":41.90540203,"Longitude":-87.63189208,"Location":"(41.90540203, -87.63189208)"}
{"Building ID":251736,"Address":"3235 N Leclaire Ave","Zip":60641,"Cohort - Sector":"Commercial","Cohort - Size":"> 50000 Sq Ft","Verification Year":2025.0,"Community Area Name":"Portage Park","Community Area Number":15,"Ward":31.0,"Latitude":41.93918272,"Longitude":-87.75361327,"Location":"(41.93918272, -87.75361327)"}
{"Building ID":251650,"Address":"2723 N Fairfield Ave","Zip":60647,"Cohort - Sector":"Commercial","Cohort - Size":"> 50000 Sq Ft","Verification Year":2024.0,"Community Area Name":"Logan Square","Community Area Number":22,"Ward":32.0,"Latitude":41.93098964,"Longitude":-87.69605323,"Location":"(41.93098964, -87.69605323)"}
{"Building ID":250046,"Address":"600 S State St","Zip":60605,"Cohort - Sector":"Commercial","Cohort - Size":"> 250000 Sq Ft","Verification Year":2025.0,"Community Area Name":"Loop","Community Area Number":32,"Ward":4.0,"Latitude":41.874294,"Longitude":-87.627664,"Location":"(41.874294, -87.627664)"}
{"Building ID":260118,"Address":"440 442 W Barry Ave","Zip":60657,"Cohort - Sector":"Residential","Cohort - Size":"> 50000 Sq Ft","Verification Year":2024.0,"Community Area Name":"Lake View","Community Area Number":6,"Ward":44.0,"Latitude":41.9398511,"Longitude":-87.65844752,"Location":"(41.9398511, -87.65844752)"}
{"Building ID":257048,"Address":"166 N Aberdeen St","Zip":60607,"Cohort - Sector":"Residential","Cohort - Size":"> 50000 Sq Ft","Verification Year":null,"Community Area Name":"Near West Side","Community Area Number":28,"Ward":27.0,"Latitude":41.88321,"Longitude":-87.65877,"Location":"(41.88321, -87.65877)"}
{"Building ID":101733,"Address":"2 N Riverside Plz","Zip":60606,"Cohort - Sector":"Commercial","Cohort - Size":"> 250000 Sq Ft","Verification Year":2026.0,"Community Area Name":"Near West Side","Community Area Number":28,"Ward":42.0,"Latitude":41.88253679,"Longitude":-87.63918687,"Location":"(41.88253679, -87.63918687)"}
{"Building ID":103698,"Address":"22 W Washington St","Zip":60602,"Cohort - Sector":"Commercial","Cohort - Size":"> 250000 Sq Ft","Verification Year":2024.0,"Community Area Name":"Loop","Community Area Number":32,"Ward":42.0,"Latitude":41.88356258,"Longitude":-87.62879915,"Location":"(41.88356258, -87.62879915)"}
{"Building ID":103645,"Address":"203 N Lasalle St","Zip":60601,"Cohort - Sector":"Commercial","Cohort - Size":"> 250000 Sq Ft","Verification Year":2025.0,"Community Area Name":"Loop","Community Area Number":32,"Ward":42.0,"Latitude":41.88606221,"Longitude":-87.63169041,"Location":"(41.88606221, -87.63169041)"}
{"Building ID":177315,"Address":"1919 S Michigan Ave","Zip":60616,"Cohort - Sector":"Residential","Cohort - Size":"> 50000 Sq Ft","Verification Year":2024.0,"Community Area Name":"Near South Side","Community Area Number":33,"Ward":3.0,"Latitude":41.85617124,"Longitude":-87.62385318,"Location":"(41.85617124, -87.62385318)"}
{"Building ID":136487,"Address":"800 E 55Th St","Zip":60615,"Cohort - Sector":"Commercial","Cohort - Size":"> 50000 Sq Ft","Verification Year":2026.0,"Community Area Name":"Hyde Park","Community Area Number":41,"Ward":5.0,"Latitude":41.79554344,"Longitude":-87.60569126,"Location":"(41.79554344, -87.60569126)"}
{"Building ID":251767,"Address":"1311 N Halsted","Zip":60642,"Cohort - Sector":"Residential","Cohort - Size":"> 50000 Sq Ft","Verification Year":2025.0,"Community Area Name":"Near North Side","Community Area Number":8,"Ward":27.0,"Latitude":41.90532123,"Longitude":-87.64808318,"Location":"(41.90532123, -87.64808318)"}
{"Building ID":152061,"Address":"2606  N Elston Ave","Zip":60647,"Cohort - Sector":"Residential","Cohort - Size":"> 50000 Sq Ft","Verification Year":2023.0,"Community Area Name":"Logan Square","Community Area Number":22,"Ward":1.0,"Latitude":41.92075046,"Longitude":-87.70152825,"Location":"(41.92075046, -87.70152825)"}
{"Building ID":156549,"Address":"601 S Lasalle St","Zip":60605,"Cohort - Sector":"Commercial","Cohort - Size":"> 50000 Sq Ft","Verification Year":2025.0,"Community Area Name":"Loop","Community Area Number":32,"Ward":4.0,"Latitude":41.87421567,"Longitude":-87.63141904,"Location":"(41.87421567, -87.63141904)"}
{"Building ID":158438,"Address":"430 N Michigan Ave","Zip":60611,"Cohort - Sector":"Commercial","Cohort - Size":"> 250000 Sq Ft","Verification Year":2024.0,"Community Area Name":"Near North Side","Community Area Number":8,"Ward":42.0,"Latitude":41.8903758,"Longitude":-87.62467983,"Location":"(41.8903758, -87.62467983)"}
{"Building ID":172771,"Address":"80  W Harrison St","Zip":60605,"Cohort - Sector":"Residential","Cohort - Size":"> 50000 Sq Ft","Verification Year":2025.0,"Community Area Name":"Loop","Community Area Number":32,"Ward":4.0,"Latitude":41.86863212,"Longitude":-87.62730687,"Location":"(41.86863212, -87.62730687)"}
{"Building ID":172798,"Address":"4930 S Cottage Grove Ave","Zip":60615,"Cohort - Sector":"Commercial","Cohort - Size":"> 50000 Sq Ft","Verification Year":2023.0,"Community Area Name":"Grand Boulevard","Community Area Number":38,"Ward":4.0,"Latitude":41.80523475,"Longitude":-87.60716445,"Location":"(41.80523475, -87.60716445)"}
{"Building ID":254034,"Address":"1609 W Warren Blvd","Zip":60612,"Cohort - Sector":"Residential","Cohort - Size":"> 50000 Sq Ft","Verification Year":2024.0,"Community Area Name":"Near West Side","Community Area Number":28,"Ward":27.0,"Latitude":41.8812009,"Longitude":-87.68664,"Location":"(41.8812009, -87.68664)"}
{"Building ID":173757,"Address":"431  W Oakdale Ave","Zip":60657,"Cohort - Sector":"Residential","Cohort - Size":"> 50000 Sq Ft","Verification Year":2025.0,"Community Area Name":"Lake View","Community Area Number":6,"Ward":44.0,"Latitude":41.9398511,"Longitude":-87.65844752,"Location":"(41.9398511, -87.65844752)"}
{"Building ID":157986,"Address":"800 S Michigan Ave","Zip":60605,"Cohort - Sector":"Residential","Cohort - Size":"> 50000 Sq Ft","Verification Year":2023.0,"Community Area Name":"Loop","Community Area Number":32,"Ward":4.0,"Latitude":41.87155246,"Longitude":-87.6247301,"Location":"(41.87155246, -87.6247301)"}
{"Building ID":117367,"Address":"6526  W Irving Park Rd","Zip":60634,"Cohort - Sector":"Residential","Cohort - Size":"> 50000 Sq Ft","Verification Year":2023.0,"Community Area Name":"Dunning","Community Area Number":17,"Ward":38.0,"Latitude":41.94530408,"Longitude":-87.80186746,"Location":"(41.94530408, -87.80186746)"}
{"Building ID":175474,"Address":"300 S Ashland Ave","Zip":60607,"Cohort - Sector":"Commercial","Cohort - Size":"> 50000 Sq Ft","Verification Year":2024.0,"Community Area Name":"Near West Side","Community Area Number":28,"Ward":27.0,"Latitude":41.877588,"Longitude":-87.667672,"Location":"(41.877588, -87.667672)"}
{"Building ID":256874,"Address":"717 S Clark St","Zip":60605,"Cohort - Sector":"Residential","Cohort - Size":"> 250000 Sq Ft","Verification Year":2024.0,"Community Area Name":"Loop","Community Area Number":32,"Ward":4.0,"Latitude":41.869255,"Longitude":-87.626255,"Location":"(41.869255, -87.626255)"}
{"Building ID":250035,"Address":"231 N Pine Ave","Zip":60644,"Cohort - Sector":"Commercial","Cohort - Size":"> 250000 Sq Ft","Verification Year":2023.0,"Community Area Name":"Austin","Community Area Number":25,"Ward":37.0,"Latitude":41.8845591,"Longitude":-87.76218238,"Location":"(41.8845591, -87.76218238)"}
{"Building ID":251466,"Address":"3615 W 16Th St","Zip":60623,"Cohort - Sector":"Commercial","Cohort - Size":"> 50000 Sq Ft","Verification Year":2023.0,"Community Area Name":"North Lawndale","Community Area Number":29,"Ward":24.0,"Latitude":41.85849301,"Longitude":-87.71580684,"Location":"(41.85849301, -87.71580684)"}
{"Building ID":255957,"Address":"1140 N Wells St","Zip":60610,"Cohort - Sector":"Residential","Cohort - Size":"> 250000 Sq Ft","Verification Year":2025.0,"Community Area Name":"Near North Side","Community Area Number":8,"Ward":27.0,"Latitude":41.9056301,"Longitude":-87.6322449,"Location":"(41.9056301, -87.6322449)"}
{"Building ID":105454,"Address":"530  W Arlington Pl","Zip":60614,"Cohort - Sector":"Residential","Cohort - Size":"> 50000 Sq Ft","Verification Year":2025.0,"Community Area Name":"Lincoln Park","Community Area Number":7,"Ward":43.0,"Latitude":41.92201051,"Longitude":-87.65461957,"Location":"(41.92201051, -87.65461957)"}
{"Building ID":260060,"Address":"2300 2320 N Commonwealth Ave","Zip":60614,"Cohort - Sector":"Residential","Cohort - Size":"> 50000 Sq Ft","Verification Year":2025.0,"Community Area Name":"Lincoln Park","Community Area Number":7,"Ward":43.0,"Latitude":41.92201051,"Longitude":-87.65461957,"Location":"(41.92201051, -87.65461957)"}
{"Building ID":175734,"Address":"620 N Lasalle St","Zip":60654,"Cohort - Sector":"Commercial","Cohort - Size":"> 50000 Sq Ft","Verification Year":2023.0,"Community Area Name":"Near North Side","Community Area Number":8,"Ward":42.0,"Latitude":41.89305537,"Longitude":-87.63264794,"Location":"(41.89305537, -87.63264794)"}
{"Building ID":134895,"Address":"1357 1367 N Dearborn St","Zip":60610,"Cohort - Sector":"Commercial","Cohort - Size":"> 50000 Sq Ft","Verification Year":2025.0,"Community Area Name":"Near North Side","Community Area Number":8,"Ward":2.0,"Latitude":41.90753803,"Longitude":-87.63005366,"Location":"(41.90753803, -87.63005366)"}
{"Building ID":102587,"Address":"13100 S Carver Dr","Zip":60827,"Cohort - Sector":"Commercial","Cohort - Size":"> 250000 Sq Ft","Verification Year":2024.0,"Community Area Name":"Riverdale","Community Area Number":54,"Ward":9.0,"Latitude":41.657559,"Longitude":-87.592115,"Location":"(41.657559, -87.592115)"}
{"Building ID":158743,"Address":"4344 4360 N Broadway","Zip":60613,"Cohort - Sector":"Residential","Cohort - Size":"> 50000 Sq Ft","Verification Year":2025.0,"Community Area Name":"Uptown","Community Area Number":3,"Ward":46.0,"Latitude":41.96138688,"Longitude":-87.65532001,"Location":"(41.96138688, -87.65532001)"}
{"Building ID":260037,"Address":"5222 5238 S Drexel Ave","Zip":60615,"Cohort - Sector":"Residential","Cohort - Size":"> 50000 Sq Ft","Verification Year":2025.0,"Community Area Name":"Hyde Park","Community Area Number":41,"Ward":5.0,"Latitude":41.80224043,"Longitude":-87.60332678,"Location":"(41.80224043, -87.60332678)"}
{"Building ID":118776,"Address":"450 N Cityfront Plz","Zip":60611,"Cohort - Sector":"Commercial","Cohort - Size":"> 50000 Sq Ft","Verification Year":2024.0,"Community Area Name":"Near North Side","Community Area Number":8,"Ward":42.0,"Latitude":41.88968811,"Longitude":-87.62196737,"Location":"(41.88968811, -87.62196737)"}
{"Building ID":251623,"Address":"5600 W Iowa St","Zip":60651,"Cohort - Sector":"Commercial","Cohort - Size":"> 50000 Sq Ft","Verification Year":2023.0,"Community Area Name":"Austin","Community Area Number":25,"Ward":29.0,"Latitude":41.896696,"Longitude":-87.765572,"Location":"(41.896696, -87.765572)"}
{"Building ID":156021,"Address":"717 N Michigan Ave","Zip":60611,"Cohort - Sector":"Commercial","Cohort - Size":"> 50000 Sq Ft","Verification Year":2023.0,"Community Area Name":"Near North Side","Community Area Number":8,"Ward":42.0,"Latitude":41.895382,"Longitude":-87.624213,"Location":"(41.895382, -87.624213)"}
{"Building ID":124019,"Address":"4734 N Cumberland Ave","Zip":60656,"Cohort - Sector":"Commercial","Cohort - Size":"> 50000 Sq Ft","Verification Year":2026.0,"Community Area Name":"O'Hare","Community Area Number":76,"Ward":38.0,"Latitude":41.96565014,"Longitude":-87.83681933,"Location":"(41.96565014, -87.83681933)"}
{"Building ID":159537,"Address":"300 E Ohio St","Zip":60611,"Cohort - Sector":"Residential","Cohort - Size":"> 250000 Sq Ft","Verification Year":2026.0,"Community Area Name":"Near North Side","Community Area Number":8,"Ward":42.0,"Latitude":41.89279565,"Longitude":-87.61980652,"Location":"(41.89279565, -87.61980652)"}
{"Building ID":103748,"Address":"710 N Fairbanks Ct","Zip":60611,"Cohort - Sector":"Commercial","Cohort - Size":"> 250000 Sq Ft","Verification Year":2026.0,"Community Area Name":"Near North Side","Community Area Number":8,"Ward":42.0,"Latitude":41.89531,"Longitude":-87.620363,"Location":"(41.89531, -87.620363)"}
{"Building ID":101876,"Address":"55 E Jackson Blvd","Zip":60604,"Cohort - Sector":"Commercial","Cohort - Size":"> 250000 Sq Ft","Verification Year":2025.0,"Community Area Name":"Loop","Community Area Number":32,"Ward":42.0,"Latitude":41.8780063,"Longitude":-87.62558458,"Location":"(41.8780063, -87.62558458)"}
{"Building ID":254513,"Address":"625 W Division St","Zip":60610,"Cohort - Sector":"Residential","Cohort - Size":"> 250000 Sq Ft","Verification Year":2024.0,"Community Area Name":"Near North Side","Community Area Number":8,"Ward":27.0,"Latitude":41.90412113,"Longitude":-87.63142484,"Location":"(41.90412113, -87.63142484)"}
{"Building ID":160440,"Address":"55 E Washington St","Zip":60602,"Cohort - Sector":"Residential","Cohort - Size":"> 250000 Sq Ft","Verification Year":2023.0,"Community Area Name":"Loop","Community Area Number":32,"Ward":42.0,"Latitude":41.88267276,"Longitude":-87.63020062,"Location":"(41.88267276, -87.63020062)"}
{"Building ID":120267,"Address":"2333 W Madison","Zip":60612,"Cohort - Sector":"Commercial","Cohort - Size":"> 50000 Sq Ft","Verification Year":2025.0,"Community Area Name":"Near West Side","Community Area Number":28,"Ward":27.0,"Latitude":41.881165,"Longitude":-87.684802,"Location":"(41.881165, -87.684802)"}
{"Building ID":101851,"Address":"150 160 E Huron","Zip":60611,"Cohort - Sector":"Residential","Cohort - Size":"> 250000 Sq Ft","Verification Year":2023.0,"Community Area Name":"Near North Side","Community Area Number":8,"Ward":42.0,"Latitude":41.89521657,"Longitude":-87.62317404,"Location":"(41.89521657, -87.62317404)"}
{"Building ID":252060,"Address":"950 E 61St St","Zip":60637,"Cohort - Sector":"Commercial","Cohort - Size":"> 50000 Sq Ft","Verification Year":2024.0,"Community Area Name":"Woodlawn","Community Area Number":42,"Ward":20.0,"Latitude":41.78439159,"Longitude":-87.60197356,"Location":"(41.78439159, -87.60197356)"}
{"Building ID":256837,"Address":"2150 S Canalport Avenue","Zip":60608,"Cohort - Sector":"Commercial","Cohort - Size":"> 50000 Sq Ft","Verification Year":2024.0,"Community Area Name":"Lower West Side","Community Area Number":31,"Ward":25.0,"Latitude":41.85904,"Longitude":-87.66014,"Location":"(41.85904, -87.66014)"}
{"Building ID":251548,"Address":"10540 S Morgan St","Zip":60643,"Cohort - Sector":"Commercial","Cohort - Size":"> 50000 Sq Ft","Verification Year":2024.0,"Community Area Name":"Washington Heights","Community Area Number":73,"Ward":34.0,"Latitude":41.70230601,"Longitude":-87.64817401,"Location":"(41.70230601, -87.64817401)"}
{"Building ID":114455,"Address":"1321 1327 N Astor St","Zip":60610,"Cohort - Sector":"Residential","Cohort - Size":"> 50000 Sq Ft","Verification Year":2025.0,"Community Area Name":"Near North Side","Community Area Number":8,"Ward":43.0,"Latitude":41.9037528,"Longitude":-87.63558845,"Location":"(41.9037528, -87.63558845)"}
{"Building ID":244613,"Address":"240 E Illinois St","Zip":60611,"Cohort - Sector":"Residential","Cohort - Size":"> 250000 Sq Ft","Verification Year":2024.0,"Community Area Name":"Near North Side","Community Area Number":8,"Ward":42.0,"Latitude":41.89139925,"Longitude":-87.62079715,"Location":"(41.89139925, -87.62079715)"}
{"Building ID":254167,"Address":"6333 N Winthrop Ave","Zip":60660,"Cohort - Sector":"Residential","Cohort - Size":"> 50000 Sq Ft","Verification Year":2024.0,"Community Area Name":"Edgewater","Community Area Number":77,"Ward":48.0,"Latitude":41.99740324,"Longitude":-87.65829455,"Location":"(41.99740324, -87.65829455)"}
{"Building ID":158392,"Address":"55 W Wacker Dr","Zip":60601,"Cohort - Sector":"Commercial","Cohort - Size":"> 250000 Sq Ft","Verification Year":2024.0,"Community Area Name":"Loop","Community Area Number":32,"Ward":42.0,"Latitude":41.88652287,"Longitude":-87.62987058,"Location":"(41.88652287, -87.62987058)"}
{"Building ID":114282,"Address":"420 W Belmont Ave","Zip":60657,"Cohort - Sector":"Residential","Cohort - Size":"> 50000 Sq Ft","Verification Year":2025.0,"Community Area Name":"Lake View","Community Area Number":6,"Ward":44.0,"Latitude":41.94057954,"Longitude":-87.6404315,"Location":"(41.94057954, -87.6404315)"}
{"Building ID":250098,"Address":"3245 S Prairie Ave","Zip":60616,"Cohort - Sector":"Residential","Cohort - Size":"> 250000 Sq Ft","Verification Year":2024.0,"Community Area Name":"Douglas","Community Area Number":35,"Ward":3.0,"Latitude":41.83535807,"Longitude":-87.62022239,"Location":"(41.83535807, -87.62022239)"}
{"Building ID":115605,"Address":"6250 6258 S Park Shore East Ct","Zip":60637,"Cohort - Sector":"Residential","Cohort - Size":"> 50000 Sq Ft","Verification Year":2023.0,"Community Area Name":"Woodlawn","Community Area Number":42,"Ward":5.0,"Latitude":41.78046327,"Longitude":-87.6053081,"Location":"(41.78046327, -87.6053081)"}
{"Building ID":118349,"Address":"321 S Plymouth Ct","Zip":60604,"Cohort - Sector":"Commercial","Cohort - Size":"> 50000 Sq Ft","Verification Year":2024.0,"Community Area Name":"Loop","Community Area Number":32,"Ward":4.0,"Latitude":41.87761956,"Longitude":-87.62845092,"Location":"(41.87761956, -87.62845092)"}
{"Building ID":160164,"Address":"40 E Garfield Blvd","Zip":60615,"Cohort - Sector":"Commercial","Cohort - Size":"> 250000 Sq Ft","Verification Year":2023.0,"Community Area Name":"Washington Park","Community Area Number":40,"Ward":3.0,"Latitude":41.79562488,"Longitude":-87.62464034,"Location":"(41.79562488, -87.62464034)"}
{"Building ID":251209,"Address":"9230 S Burley Ave","Zip":60617,"Cohort - Sector":"Commercial","Cohort - Size":"> 50000 Sq Ft","Verification Year":2024.0,"Community Area Name":"South Chicago","Community Area Number":46,"Ward":10.0,"Latitude":41.72738,"Longitude":-87.545611,"Location":"(41.72738, -87.545611)"}
{"Building ID":172541,"Address":"1631  S Michigan Ave","Zip":60616,"Cohort - Sector":"Residential","Cohort - Size":"> 50000 Sq Ft","Verification Year":2025.0,"Community Area Name":"Near South Side","Community Area Number":33,"Ward":3.0,"Latitude":41.84550365,"Longitude":-87.63055693,"Location":"(41.84550365, -87.63055693)"}
{"Building ID":173846,"Address":"3300 N Campbell Ave","Zip":60618,"Cohort - Sector":"Commercial","Cohort - Size":"> 50000 Sq Ft","Verification Year":2023.0,"Community Area Name":"North Center","Community Area Number":5,"Ward":47.0,"Latitude":41.94215703,"Longitude":-87.69147854,"Location":"(41.94215703, -87.69147854)"}
{"Building ID":167479,"Address":"2650 2700 N Clark St","Zip":60614,"Cohort - Sector":"Commercial","Cohort - Size":"> 50000 Sq Ft","Verification Year":2023.0,"Community Area Name":"Lincoln Park","Community Area Number":7,"Ward":43.0,"Latitude":41.93184564,"Longitude":-87.6446088,"Location":"(41.93184564, -87.6446088)"}
{"Building ID":251644,"Address":"5025 N Laramie Ave","Zip":60630,"Cohort - Sector":"Commercial","Cohort - Size":"> 50000 Sq Ft","Verification Year":2025.0,"Community Area Name":"Jefferson Park","Community Area Number":11,"Ward":45.0,"Latitude":41.97209735,"Longitude":-87.7569164,"Location":"(41.97209735, -87.7569164)"}
{"Building ID":254978,"Address":"1101 W Waveland Ave","Zip":60613,"Cohort - Sector":"Commercial","Cohort - Size":"> 50000 Sq Ft","Verification Year":2025.0,"Community Area Name":"Lake View","Community Area Number":6,"Ward":44.0,"Latitude":41.9489475,"Longitude":-87.65701158,"Location":"(41.9489475, -87.65701158)"}
{"Building ID":155614,"Address":"3447 3457 W Foster Ave","Zip":60625,"Cohort - Sector":"Residential","Cohort - Size":"> 50000 Sq Ft","Verification Year":2023.0,"Community Area Name":"North Park","Community Area Number":13,"Ward":39.0,"Latitude":41.97208235,"Longitude":-87.70234945,"Location":"(41.97208235, -87.70234945)"}
{"Building ID":251624,"Address":"4707 W Marquette Rd","Zip":60629,"Cohort - Sector":"Commercial","Cohort - Size":"> 50000 Sq Ft","Verification Year":2025.0,"Community Area Name":"West Lawn","Community Area Number":65,"Ward":13.0,"Latitude":41.77052865,"Longitude":-87.73984436,"Location":"(41.77052865, -87.73984436)"}
{"Building ID":159418,"Address":"3001 S King Dr","Zip":60616,"Cohort - Sector":"Residential","Cohort - Size":"> 250000 Sq Ft","Verification Year":2024.0,"Community Area Name":"Douglas","Community Area Number":35,"Ward":4.0,"Latitude":41.83920388,"Longitude":-87.61661637,"Location":"(41.83920388, -87.61661637)"}
{"Building ID":250138,"Address":"500 E 51St St","Zip":60615,"Cohort - Sector":"Commercial","Cohort - Size":"> 250000 Sq Ft","Verification Year":2025.0,"Community Area Name":"Grand Boulevard","Community Area Number":38,"Ward":3.0,"Latitude":41.802169,"Longitude":-87.613988,"Location":"(41.802169, -87.613988)"}
{"Building ID":104250,"Address":"544  W Melrose St","Zip":60657,"Cohort - Sector":"Residential","Cohort - Size":"> 50000 Sq Ft","Verification Year":2025.0,"Community Area Name":"Lake View","Community Area Number":6,"Ward":44.0,"Latitude":41.9398511,"Longitude":-87.65844752,"Location":"(41.9398511, -87.65844752)"}
{"Building ID":250051,"Address":"8235 S Vincennes Ave","Zip":60620,"Cohort - Sector":"Commercial","Cohort - Size":"> 250000 Sq Ft","Verification Year":2025.0,"Community Area Name":"Chatham","Community Area Number":44,"Ward":21.0,"Latitude":41.744236,"Longitude":-87.635863,"Location":"(41.744236, -87.635863)"}
{"Building ID":240338,"Address":"1250 S Indiana Ave","Zip":60605,"Cohort - Sector":"Residential","Cohort - Size":"> 250000 Sq Ft","Verification Year":2025.0,"Community Area Name":"Near South Side","Community Area Number":33,"Ward":3.0,"Latitude":41.86627308,"Longitude":-87.62299085,"Location":"(41.86627308, -87.62299085)"}
{"Building ID":251355,"Address":"9811 S Lowe Ave","Zip":60628,"Cohort - Sector":"Commercial","Cohort - Size":"> 50000 Sq Ft","Verification Year":2023.0,"Community Area Name":"Washington Heights","Community Area Number":73,"Ward":34.0,"Latitude":41.71565288,"Longitude":-87.63896474,"Location":"(41.71565288, -87.63896474)"}
{"Building ID":252094,"Address":"1110 N Lake Shore Dr","Zip":60611,"Cohort - Sector":"Residential","Cohort - Size":"> 50000 Sq Ft","Verification Year":2024.0,"Community Area Name":"Near North Side","Community Area Number":8,"Ward":2.0,"Latitude":41.90282478,"Longitude":-87.62497673,"Location":"(41.90282478, -87.62497673)"}
{"Building ID":254008,"Address":"4816 4828 S Dorchester Ave","Zip":60615,"Cohort - Sector":"Residential","Cohort - Size":"> 50000 Sq Ft","Verification Year":2025.0,"Community Area Name":"Kenwood","Community Area Number":39,"Ward":4.0,"Latitude":41.8022432,"Longitude":-87.60352,"Location":"(41.8022432, -87.60352)"}
{"Building ID":256767,"Address":"146 W Erie St","Zip":60654,"Cohort - Sector":"Residential","Cohort - Size":"> 50000 Sq Ft","Verification Year":2023.0,"Community Area Name":"Near North Side","Community Area Number":8,"Ward":42.0,"Latitude":41.892375,"Longitude":-87.63491,"Location":"(41.892375, -87.63491)"}
{"Building ID":172318,"Address":"1307 1325 N California Ave","Zip":60622,"Cohort - Sector":"Residential","Cohort - Size":"> 50000 Sq Ft","Verification Year":2025.0,"Community Area Name":"West Town","Community Area Number":24,"Ward":26.0,"Latitude":41.90225377,"Longitude":-87.68447845,"Location":"(41.90225377, -87.68447845)"}
{"Building ID":256774,"Address":"1957 N Fairfield Ave","Zip":60647,"Cohort - Sector":"Residential","Cohort - Size":"> 50000 Sq Ft","Verification Year":2023.0,"Community Area Name":"Logan Square","Community Area Number":22,"Ward":1.0,"Latitude":41.921025,"Longitude":-87.691375,"Location":"(41.921025, -87.691375)"}
{"Building ID":256891,"Address":"104 S Laflin St","Zip":60607,"Cohort - Sector":"Residential","Cohort - Size":"> 50000 Sq Ft","Verification Year":2026.0,"Community Area Name":"Near West Side","Community Area Number":28,"Ward":34.0,"Latitude":41.88321,"Longitude":-87.65877,"Location":"(41.88321, -87.65877)"}
{"Building ID":175857,"Address":"900 910 912 W Lake St & 212 N Peoria St","Zip":60607,"Cohort - Sector":"Residential","Cohort - Size":"> 50000 Sq Ft","Verification Year":2025.0,"Community Area Name":"Near West Side","Community Area Number":28,"Ward":27.0,"Latitude":41.87399385,"Longitude":-87.651678,"Location":"(41.87399385, -87.651678)"}
{"Building ID":257096,"Address":"5753 N Broadway","Zip":60660,"Cohort - Sector":null,"Cohort - Size":null,"Verification Year":2024.0,"Community Area Name":"Edgewater","Community Area Number":77,"Ward":48.0,"Latitude":41.99106,"Longitude":-87.6676,"Location":"(41.99106, -87.6676)"}
{"Building ID":251230,"Address":"1448 N Lake Shore Dr","Zip":60610,"Cohort - Sector":"Residential","Cohort - Size":"> 50000 Sq Ft","Verification Year":2025.0,"Community Area Name":"Near North Side","Community Area Number":8,"Ward":43.0,"Latitude":41.90933331,"Longitude":-87.62655128,"Location":"(41.90933331, -87.62655128)"}
{"Building ID":255941,"Address":"1801 W Jackson Blvd","Zip":60612,"Cohort - Sector":"Commercial","Cohort - Size":"> 50000 Sq Ft","Verification Year":2026.0,"Community Area Name":"Near West Side","Community Area Number":28,"Ward":27.0,"Latitude":41.8776449,"Longitude":-87.6741299,"Location":"(41.8776449, -87.6741299)"}
{"Building ID":253951,"Address":"1801 S Michigan Ave","Zip":60616,"Cohort - Sector":"Residential","Cohort - Size":"> 50000 Sq Ft","Verification Year":2024.0,"Community Area Name":"Near South Side","Community Area Number":33,"Ward":3.0,"Latitude":41.84550365,"Longitude":-87.63055693,"Location":"(41.84550365, -87.63055693)"}
{"Building ID":159298,"Address":"1911 S Indiana Ave","Zip":60616,"Cohort - Sector":"Commercial","Cohort - Size":"> 50000 Sq Ft","Verification Year":2024.0,"Community Area Name":"Near South Side","Community Area Number":33,"Ward":3.0,"Latitude":41.85635481,"Longitude":-87.62186424,"Location":"(41.85635481, -87.62186424)"}
{"Building ID":242313,"Address":"3150 N Lake Shore Dr","Zip":60657,"Cohort - Sector":"Residential","Cohort - Size":"> 250000 Sq Ft","Verification Year":2024.0,"Community Area Name":"Lake View","Community Area Number":6,"Ward":44.0,"Latitude":41.93904206,"Longitude":-87.63916169,"Location":"(41.93904206, -87.63916169)"}
{"Building ID":173812,"Address":"3900  N Pine Grove Ave","Zip":60613,"Cohort - Sector":"Residential","Cohort - Size":"> 50000 Sq Ft","Verification Year":2025.0,"Community Area Name":"Lake View","Community Area Number":6,"Ward":46.0,"Latitude":41.95402016,"Longitude":-87.6620278,"Location":"(41.95402016, -87.6620278)"}
{"Building ID":114198,"Address":"1415  N Dearborn St","Zip":60610,"Cohort - Sector":"Residential","Cohort - Size":"> 50000 Sq Ft","Verification Year":2025.0,"Community Area Name":"Near North Side","Community Area Number":8,"Ward":2.0,"Latitude":41.9037528,"Longitude":-87.63558845,"Location":"(41.9037528, -87.63558845)"}
{"Building ID":112801,"Address":"5740  N Sheridan Rd","Zip":60660,"Cohort - Sector":"Residential","Cohort - Size":"> 50000 Sq Ft","Verification Year":2026.0,"Community Area Name":"Edgewater","Community Area Number":77,"Ward":48.0,"Latitude":41.99090057,"Longitude":-87.66660744,"Location":"(41.99090057, -87.66660744)"}
{"Building ID":252028,"Address":"2130 2140 W Fulton St","Zip":60612,"Cohort - Sector":"Commercial","Cohort - Size":"> 50000 Sq Ft","Verification Year":2025.0,"Community Area Name":"Near West Side","Community Area Number":28,"Ward":27.0,"Latitude":41.886754,"Longitude":-87.680033,"Location":"(41.886754, -87.680033)"}
{"Building ID":251540,"Address":"6200 S Racine","Zip":60636,"Cohort - Sector":"Municipal","Cohort - Size":"> 50000 Sq Ft","Verification Year":2023.0,"Community Area Name":"West Englewood","Community Area Number":67,"Ward":16.0,"Latitude":41.78133068,"Longitude":-87.65457244,"Location":"(41.78133068, -87.65457244)"}
{"Building ID":102532,"Address":"2320 E 93Rd St","Zip":60617,"Cohort - Sector":"Commercial","Cohort - Size":"> 250000 Sq Ft","Verification Year":2024.0,"Community Area Name":"Calumet Heights","Community Area Number":48,"Ward":7.0,"Latitude":41.72673518,"Longitude":-87.56695195,"Location":"(41.72673518, -87.56695195)"}
{"Building ID":251402,"Address":"2306 W Maypole Ave","Zip":60612,"Cohort - Sector":"Municipal","Cohort - Size":"> 50000 Sq Ft","Verification Year":2023.0,"Community Area Name":"Near West Side","Community Area Number":28,"Ward":27.0,"Latitude":41.88416052,"Longitude":-87.68478473,"Location":"(41.88416052, -87.68478473)"}
{"Building ID":252294,"Address":"510-24 W Wellington","Zip":60657,"Cohort - Sector":"Residential","Cohort - Size":"> 50000 Sq Ft","Verification Year":2024.0,"Community Area Name":"Lake View","Community Area Number":6,"Ward":44.0,"Latitude":41.93653853,"Longitude":-87.64219914,"Location":"(41.93653853, -87.64219914)"}
{"Building ID":255927,"Address":"4447 N Kedzie Ave","Zip":60625,"Cohort - Sector":"Residential","Cohort - Size":"> 50000 Sq Ft","Verification Year":2024.0,"Community Area Name":"Albany Park","Community Area Number":14,"Ward":33.0,"Latitude":41.9757,"Longitude":-87.69428,"Location":"(41.9757, -87.69428)"}
{"Building ID":111553,"Address":"1660  N Hudson Ave","Zip":60614,"Cohort - Sector":"Residential","Cohort - Size":"> 50000 Sq Ft","Verification Year":2026.0,"Community Area Name":"Lincoln Park","Community Area Number":7,"Ward":43.0,"Latitude":41.92201051,"Longitude":-87.65461957,"Location":"(41.92201051, -87.65461957)"}
{"Building ID":126411,"Address":"25 E Oak St","Zip":60611,"Cohort - Sector":"Commercial","Cohort - Size":"> 50000 Sq Ft","Verification Year":2024.0,"Community Area Name":"Near North Side","Community Area Number":8,"Ward":42.0,"Latitude":41.90070885,"Longitude":-87.62729058,"Location":"(41.90070885, -87.62729058)"}
{"Building ID":105739,"Address":"5346 5350 S Cornell Ave","Zip":60615,"Cohort - Sector":"Residential","Cohort - Size":"> 50000 Sq Ft","Verification Year":2025.0,"Community Area Name":"Hyde Park","Community Area Number":41,"Ward":5.0,"Latitude":41.80224043,"Longitude":-87.60332678,"Location":"(41.80224043, -87.60332678)"}
{"Building ID":251586,"Address":"1148 N Honore St","Zip":60622,"Cohort - Sector":"Commercial","Cohort - Size":"> 50000 Sq Ft","Verification Year":2025.0,"Community Area Name":"West Town","Community Area Number":24,"Ward":1.0,"Latitude":41.90245706,"Longitude":-87.67402856,"Location":"(41.90245706, -87.67402856)"}
{"Building ID":159276,"Address":"6201 S Emerald Dr","Zip":60621,"Cohort - Sector":"Commercial","Cohort - Size":"> 50000 Sq Ft","Verification Year":2024.0,"Community Area Name":"Englewood","Community Area Number":68,"Ward":16.0,"Latitude":41.770346,"Longitude":-87.643171,"Location":"(41.770346, -87.643171)"}
{"Building ID":251734,"Address":"4343 W Wrightwood Ave","Zip":60639,"Cohort - Sector":"Commercial","Cohort - Size":"> 50000 Sq Ft","Verification Year":2024.0,"Community Area Name":"Hermosa","Community Area Number":20,"Ward":31.0,"Latitude":41.92723729,"Longitude":-87.73604506,"Location":"(41.92723729, -87.73604506)"}
{"Building ID":255938,"Address":"822 N Clark St","Zip":60610,"Cohort - Sector":"Commercial","Cohort - Size":"> 50000 Sq Ft","Verification Year":2023.0,"Community Area Name":"Near North Side","Community Area Number":8,"Ward":2.0,"Latitude":41.9056301,"Longitude":-87.6322449,"Location":"(41.9056301, -87.6322449)"}
{"Building ID":102362,"Address":"1945 W Wilson Ave","Zip":60640,"Cohort - Sector":"Commercial","Cohort - Size":"> 50000 Sq Ft","Verification Year":2026.0,"Community Area Name":"Lincoln Square","Community Area Number":4,"Ward":47.0,"Latitude":41.96509261,"Longitude":-87.67778064,"Location":"(41.96509261, -87.67778064)"}
{"Building ID":113652,"Address":"233 E Walton Place","Zip":60611,"Cohort - Sector":"Residential","Cohort - Size":"> 50000 Sq Ft","Verification Year":2025.0,"Community Area Name":"Near North Side","Community Area Number":8,"Ward":2.0,"Latitude":41.89579275,"Longitude":-87.62247957,"Location":"(41.89579275, -87.62247957)"}
{"Building ID":105749,"Address":"211 217 E Chestnut St","Zip":60611,"Cohort - Sector":"Residential","Cohort - Size":"> 50000 Sq Ft","Verification Year":2025.0,"Community Area Name":"Near North Side","Community Area Number":8,"Ward":2.0,"Latitude":41.89579275,"Longitude":-87.62247957,"Location":"(41.89579275, -87.62247957)"}
{"Building ID":172053,"Address":"7901 S Sangamon St","Zip":60620,"Cohort - Sector":"Commercial","Cohort - Size":"> 50000 Sq Ft","Verification Year":2024.0,"Community Area Name":"Auburn Gresham","Community Area Number":71,"Ward":17.0,"Latitude":41.75029724,"Longitude":-87.64707116,"Location":"(41.75029724, -87.64707116)"}
{"Building ID":101950,"Address":"332 S Michigan Ave","Zip":60604,"Cohort - Sector":"Commercial","Cohort - Size":"> 250000 Sq Ft","Verification Year":2026.0,"Community Area Name":"Loop","Community Area Number":32,"Ward":42.0,"Latitude":41.87724917,"Longitude":-87.6247034,"Location":"(41.87724917, -87.6247034)"}
{"Building ID":173658,"Address":"210 222 W Superior St","Zip":60654,"Cohort - Sector":"Commercial","Cohort - Size":"> 50000 Sq Ft","Verification Year":2024.0,"Community Area Name":"Near North Side","Community Area Number":8,"Ward":42.0,"Latitude":41.89561827,"Longitude":-87.63484054,"Location":"(41.89561827, -87.63484054)"}
{"Building ID":158380,"Address":"104 S Michigan Ave","Zip":60603,"Cohort - Sector":"Commercial","Cohort - Size":"> 50000 Sq Ft","Verification Year":2025.0,"Community Area Name":"Loop","Community Area Number":32,"Ward":42.0,"Latitude":41.88064983,"Longitude":-87.62495547,"Location":"(41.88064983, -87.62495547)"}
{"Building ID":257093,"Address":"3449 N Ashland Ave","Zip":60657,"Cohort - Sector":null,"Cohort - Size":null,"Verification Year":2024.0,"Community Area Name":"Lake View","Community Area Number":6,"Ward":44.0,"Latitude":41.939695,"Longitude":-87.66901,"Location":"(41.939695, -87.66901)"}
{"Building ID":116966,"Address":"9510  S Constance Ave","Zip":60617,"Cohort - Sector":"Residential","Cohort - Size":"> 50000 Sq Ft","Verification Year":2025.0,"Community Area Name":"South Deering","Community Area Number":51,"Ward":7.0,"Latitude":41.7272413,"Longitude":-87.55513633,"Location":"(41.7272413, -87.55513633)"}
{"Building ID":173617,"Address":"105 W Madison St","Zip":60602,"Cohort - Sector":"Commercial","Cohort - Size":"> 50000 Sq Ft","Verification Year":2025.0,"Community Area Name":"Loop","Community Area Number":32,"Ward":42.0,"Latitude":41.88195371,"Longitude":-87.63114001,"Location":"(41.88195371, -87.63114001)"}
{"Building ID":254170,"Address":"6327 N Kenmore Ave","Zip":60660,"Cohort - Sector":"Residential","Cohort - Size":"> 50000 Sq Ft","Verification Year":2024.0,"Community Area Name":"Edgewater","Community Area Number":77,"Ward":48.0,"Latitude":41.99723585,"Longitude":-87.65688616,"Location":"(41.99723585, -87.65688616)"}
{"Building ID":257083,"Address":"42 W 37Th St","Zip":60609,"Cohort - Sector":null,"Cohort - Size":null,"Verification Year":2024.0,"Community Area Name":"Douglas","Community Area Number":35,"Ward":3.0,"Latitude":41.806785,"Longitude":-87.666475,"Location":"(41.806785, -87.666475)"}
{"Building ID":242279,"Address":"1100 N Lakeshore Dr","Zip":60611,"Cohort - Sector":"Residential","Cohort - Size":"> 50000 Sq Ft","Verification Year":2025.0,"Community Area Name":"Near North Side","Community Area Number":8,"Ward":2.0,"Latitude":41.90260134,"Longitude":-87.62511486,"Location":"(41.90260134, -87.62511486)"}
{"Building ID":257070,"Address":"920 N Wells St","Zip":60606,"Cohort - Sector":null,"Cohort - Size":null,"Verification Year":2024.0,"Community Area Name":"Near North Side","Community Area Number":8,"Ward":27.0,"Latitude":41.88324,"Longitude":-87.635795,"Location":"(41.88324, -87.635795)"}
{"Building ID":251237,"Address":"1242 N Lake Shore Dr","Zip":60610,"Cohort - Sector":"Residential","Cohort - Size":"> 50000 Sq Ft","Verification Year":2025.0,"Community Area Name":"Near North Side","Community Area Number":8,"Ward":43.0,"Latitude":41.90531026,"Longitude":-87.62553343,"Location":"(41.90531026, -87.62553343)"}
{"Building ID":250079,"Address":"661 E 69Th St","Zip":60637,"Cohort - Sector":"Residential","Cohort - Size":"> 50000 Sq Ft","Verification Year":2024.0,"Community Area Name":"Woodlawn","Community Area Number":42,"Ward":20.0,"Latitude":41.769414,"Longitude":-87.608999,"Location":"(41.769414, -87.608999)"}
{"Building ID":173712,"Address":"1153 1155 W Armitage Ave","Zip":60614,"Cohort - Sector":"Residential","Cohort - Size":"> 50000 Sq Ft","Verification Year":2023.0,"Community Area Name":"Lincoln Park","Community Area Number":7,"Ward":43.0,"Latitude":41.92201051,"Longitude":-87.65461957,"Location":"(41.92201051, -87.65461957)"}
{"Building ID":158287,"Address":"320 N Dearborn Ave","Zip":60654,"Cohort - Sector":"Residential","Cohort - Size":"> 250000 Sq Ft","Verification Year":2024.0,"Community Area Name":"Near North Side","Community Area Number":8,"Ward":42.0,"Latitude":41.907571,"Longitude":-87.630092,"Location":"(41.907571, -87.630092)"}
{"Building ID":250083,"Address":"1930 W Loyola Ave","Zip":60626,"Cohort - Sector":"Residential","Cohort - Size":"> 50000 Sq Ft","Verification Year":2024.0,"Community Area Name":"West Ridge","Community Area Number":2,"Ward":50.0,"Latitude":42.00058336,"Longitude":-87.6788202,"Location":"(42.00058336, -87.6788202)"}
{"Building ID":251484,"Address":"1746 S Miller St","Zip":60608,"Cohort - Sector":"Commercial","Cohort - Size":"> 50000 Sq Ft","Verification Year":2025.0,"Community Area Name":"Lower West Side","Community Area Number":31,"Ward":25.0,"Latitude":41.85866305,"Longitude":-87.65256293,"Location":"(41.85866305, -87.65256293)"}
{"Building ID":251651,"Address":"3740 W 31St St","Zip":60623,"Cohort - Sector":"Commercial","Cohort - Size":"> 50000 Sq Ft","Verification Year":2025.0,"Community Area Name":"South Lawndale","Community Area Number":30,"Ward":22.0,"Latitude":41.83790661,"Longitude":-87.71883999,"Location":"(41.83790661, -87.71883999)"}
{"Building ID":256736,"Address":"10810 S Avenue H","Zip":60617,"Cohort - Sector":"Commercial","Cohort - Size":"> 50000 Sq Ft","Verification Year":2024.0,"Community Area Name":"East Side","Community Area Number":52,"Ward":10.0,"Latitude":41.74246,"Longitude":-87.58007,"Location":"(41.74246, -87.58007)"}
{"Building ID":106118,"Address":"3410 3412 N Lake Shore Dr","Zip":60657,"Cohort - Sector":"Residential","Cohort - Size":"> 50000 Sq Ft","Verification Year":2025.0,"Community Area Name":"Lake View","Community Area Number":6,"Ward":44.0,"Latitude":41.9398511,"Longitude":-87.65844752,"Location":"(41.9398511, -87.65844752)"}
{"Building ID":130218,"Address":"2430 2458 W George St","Zip":60618,"Cohort - Sector":"Commercial","Cohort - Size":"> 50000 Sq Ft","Verification Year":2023.0,"Community Area Name":"Avondale","Community Area Number":21,"Ward":33.0,"Latitude":41.93399769,"Longitude":-87.68971091,"Location":"(41.93399769, -87.68971091)"}
{"Building ID":250095,"Address":"6360 S Minerva Ave","Zip":60637,"Cohort - Sector":"Residential","Cohort - Size":"> 50000 Sq Ft","Verification Year":2024.0,"Community Area Name":"Woodlawn","Community Area Number":42,"Ward":20.0,"Latitude":41.77908095,"Longitude":-87.59670209,"Location":"(41.77908095, -87.59670209)"}
{"Building ID":253954,"Address":"1717 N Crilly Ct","Zip":60614,"Cohort - Sector":"Residential","Cohort - Size":"> 50000 Sq Ft","Verification Year":2025.0,"Community Area Name":"Lincoln Park","Community Area Number":7,"Ward":43.0,"Latitude":41.92173714,"Longitude":-87.65391568,"Location":"(41.92173714, -87.65391568)"}
{"Building ID":256794,"Address":"6342 S Green","Zip":60621,"Cohort - Sector":"Residential","Cohort - Size":"> 50000 Sq Ft","Verification Year":2026.0,"Community Area Name":"Englewood","Community Area Number":68,"Ward":16.0,"Latitude":41.769845,"Longitude":-87.643155,"Location":"(41.769845, -87.643155)"}
{"Building ID":251463,"Address":"615 W Kemper Pl","Zip":60614,"Cohort - Sector":"Commercial","Cohort - Size":"> 50000 Sq Ft","Verification Year":2025.0,"Community Area Name":"Lincoln Park","Community Area Number":7,"Ward":43.0,"Latitude":41.92439864,"Longitude":-87.64454347,"Location":"(41.92439864, -87.64454347)"}
{"Building ID":162321,"Address":"1529 N Dearborn Pkwy","Zip":60610,"Cohort - Sector":"Commercial","Cohort - Size":"> 50000 Sq Ft","Verification Year":2023.0,"Community Area Name":"Near North Side","Community Area Number":8,"Ward":2.0,"Latitude":41.910193,"Longitude":-87.630119,"Location":"(41.910193, -87.630119)"}
{"Building ID":256539,"Address":"210 N Carpenter St","Zip":60607,"Cohort - Sector":"Commercial","Cohort - Size":"> 250000 Sq Ft","Verification Year":2026.0,"Community Area Name":"Near West Side","Community Area Number":28,"Ward":27.0,"Latitude":41.86387004,"Longitude":-87.64681941,"Location":"(41.86387004, -87.64681941)"}
{"Building ID":252078,"Address":"5025 S St Louis","Zip":60632,"Cohort - Sector":"Commercial","Cohort - Size":"> 50000 Sq Ft","Verification Year":2025.0,"Community Area Name":"Gage Park","Community Area Number":63,"Ward":14.0,"Latitude":41.80806486,"Longitude":-87.71097656,"Location":"(41.80806486, -87.71097656)"}
{"Building ID":256660,"Address":"3859 S. Vincennes Avenue","Zip":60653,"Cohort - Sector":"Residential","Cohort - Size":"> 50000 Sq Ft","Verification Year":2026.0,"Community Area Name":"Oakland","Community Area Number":36,"Ward":4.0,"Latitude":41.816805,"Longitude":-87.607775,"Location":"(41.816805, -87.607775)"}
{"Building ID":114858,"Address":"5100 5110 S Cornell Ave","Zip":60615,"Cohort - Sector":"Residential","Cohort - Size":"> 50000 Sq Ft","Verification Year":2025.0,"Community Area Name":"Hyde Park","Community Area Number":41,"Ward":5.0,"Latitude":41.80224043,"Longitude":-87.60332678,"Location":"(41.80224043, -87.60332678)"}
{"Building ID":175473,"Address":"6748 6750 N Ashland Ave","Zip":60626,"Cohort - Sector":"Residential","Cohort - Size":"> 50000 Sq Ft","Verification Year":2026.0,"Community Area Name":"Rogers Park","Community Area Number":1,"Ward":49.0,"Latitude":42.01036185,"Longitude":-87.66829765,"Location":"(42.01036185, -87.66829765)"}
{"Building ID":113688,"Address":"70 76 E Cedar St","Zip":60611,"Cohort - Sector":"Residential","Cohort - Size":"> 50000 Sq Ft","Verification Year":2025.0,"Community Area Name":"Near North Side","Community Area Number":8,"Ward":2.0,"Latitude":41.89579275,"Longitude":-87.62247957,"Location":"(41.89579275, -87.62247957)"}
{"Building ID":109413,"Address":"550 558 W Surf St","Zip":60657,"Cohort - Sector":"Residential","Cohort - Size":"> 50000 Sq Ft","Verification Year":2023.0,"Community Area Name":"Lake View","Community Area Number":6,"Ward":44.0,"Latitude":41.9398511,"Longitude":-87.65844752,"Location":"(41.9398511, -87.65844752)"}
{"Building ID":234084,"Address":"1530 N Dearborn Pkwy","Zip":60610,"Cohort - Sector":"Residential","Cohort - Size":"> 50000 Sq Ft","Verification Year":2026.0,"Community Area Name":"Near North Side","Community Area Number":8,"Ward":2.0,"Latitude":41.91037236,"Longitude":-87.63064547,"Location":"(41.91037236, -87.63064547)"}
{"Building ID":103620,"Address":"1530 N Dayton St","Zip":60642,"Cohort - Sector":"Commercial","Cohort - Size":"> 250000 Sq Ft","Verification Year":2023.0,"Community Area Name":"Near North Side","Community Area Number":8,"Ward":2.0,"Latitude":41.910106,"Longitude":-87.649495,"Location":"(41.910106, -87.649495)"}
{"Building ID":251418,"Address":"5625 N Mcvicker Ave","Zip":60646,"Cohort - Sector":"Commercial","Cohort - Size":"> 50000 Sq Ft","Verification Year":2025.0,"Community Area Name":"Norwood Park","Community Area Number":10,"Ward":45.0,"Latitude":41.98409017,"Longitude":-87.7788465,"Location":"(41.98409017, -87.7788465)"}
{"Building ID":103617,"Address":"33 E Congress Pkwy","Zip":60605,"Cohort - Sector":"Commercial","Cohort - Size":"> 50000 Sq Ft","Verification Year":2024.0,"Community Area Name":"Loop","Community Area Number":32,"Ward":4.0,"Latitude":41.87540112,"Longitude":-87.62651136,"Location":"(41.87540112, -87.62651136)"}
{"Building ID":252267,"Address":"801 S Wells St","Zip":60607,"Cohort - Sector":"Residential","Cohort - Size":"> 50000 Sq Ft","Verification Year":2023.0,"Community Area Name":"Loop","Community Area Number":32,"Ward":25.0,"Latitude":41.87175238,"Longitude":-87.6335235,"Location":"(41.87175238, -87.6335235)"}
{"Building ID":252274,"Address":"5957-73 W Madison St","Zip":60644,"Cohort - Sector":"Residential","Cohort - Size":"> 50000 Sq Ft","Verification Year":2024.0,"Community Area Name":"Austin","Community Area Number":25,"Ward":29.0,"Latitude":41.88006328,"Longitude":-87.7736898,"Location":"(41.88006328, -87.7736898)"}
{"Building ID":159245,"Address":"150 W Maple St","Zip":60610,"Cohort - Sector":"Residential","Cohort - Size":"> 250000 Sq Ft","Verification Year":2024.0,"Community Area Name":"Near North Side","Community Area Number":8,"Ward":27.0,"Latitude":41.90205446,"Longitude":-87.63398256,"Location":"(41.90205446, -87.63398256)"}
{"Building ID":141031,"Address":"4101 4123 N Sheridan Rd","Zip":60613,"Cohort - Sector":"Residential","Cohort - Size":"> 50000 Sq Ft","Verification Year":2027.0,"Community Area Name":"Uptown","Community Area Number":3,"Ward":46.0,"Latitude":41.95402016,"Longitude":-87.6620278,"Location":"(41.95402016, -87.6620278)"}
{"Building ID":251679,"Address":"3320 W Hirsch St","Zip":60651,"Cohort - Sector":"Commercial","Cohort - Size":"> 50000 Sq Ft","Verification Year":2023.0,"Community Area Name":"Humboldt Park","Community Area Number":23,"Ward":26.0,"Latitude":41.90669414,"Longitude":-87.71050823,"Location":"(41.90669414, -87.71050823)"}
{"Building ID":252054,"Address":"5850 S Woodlawn Ave","Zip":60637,"Cohort - Sector":"Commercial","Cohort - Size":"> 50000 Sq Ft","Verification Year":2024.0,"Community Area Name":"Hyde Park","Community Area Number":41,"Ward":5.0,"Latitude":41.78921164,"Longitude":-87.5964353,"Location":"(41.78921164, -87.5964353)"}
{"Building ID":175516,"Address":"2617 2625 W Gunnison St","Zip":60625,"Cohort - Sector":"Residential","Cohort - Size":"> 50000 Sq Ft","Verification Year":2023.0,"Community Area Name":"Lincoln Square","Community Area Number":4,"Ward":40.0,"Latitude":41.97208235,"Longitude":-87.70234945,"Location":"(41.97208235, -87.70234945)"}
{"Building ID":251780,"Address":"735 N State St","Zip":60654,"Cohort - Sector":"Commercial","Cohort - Size":"> 50000 Sq Ft","Verification Year":2023.0,"Community Area Name":"Near North Side","Community Area Number":8,"Ward":42.0,"Latitude":41.89582933,"Longitude":-87.62812742,"Location":"(41.89582933, -87.62812742)"}
{"Building ID":251608,"Address":"4418 S Sacramento","Zip":60632,"Cohort - Sector":"Commercial","Cohort - Size":"> 50000 Sq Ft","Verification Year":2025.0,"Community Area Name":"Brighton Park","Community Area Number":58,"Ward":15.0,"Latitude":41.813268,"Longitude":-87.699299,"Location":"(41.813268, -87.699299)"}
{"Building ID":256436,"Address":"3424 S State Street","Zip":60616,"Cohort - Sector":"Commercial","Cohort - Size":"> 50000 Sq Ft","Verification Year":2023.0,"Community Area Name":"Douglas","Community Area Number":35,"Ward":3.0,"Latitude":41.842325,"Longitude":-87.62715344,"Location":"(41.842325, -87.62715344)"}
{"Building ID":239540,"Address":"71 E Division St","Zip":60610,"Cohort - Sector":"Residential","Cohort - Size":"> 50000 Sq Ft","Verification Year":2025.0,"Community Area Name":"Near North Side","Community Area Number":8,"Ward":2.0,"Latitude":41.90376285,"Longitude":-87.62612567,"Location":"(41.90376285, -87.62612567)"}
{"Building ID":254357,"Address":"2012 W 17Th St","Zip":60608,"Cohort - Sector":"Residential","Cohort - Size":"> 50000 Sq Ft","Verification Year":2024.0,"Community Area Name":"Near West Side","Community Area Number":28,"Ward":25.0,"Latitude":41.85934726,"Longitude":-87.65346588,"Location":"(41.85934726, -87.65346588)"}
{"Building ID":165924,"Address":"600 W Diversey Pkwy","Zip":60614,"Cohort - Sector":"Residential","Cohort - Size":"> 250000 Sq Ft","Verification Year":2024.0,"Community Area Name":"Lake View","Community Area Number":6,"Ward":44.0,"Latitude":41.93284849,"Longitude":-87.64381155,"Location":"(41.93284849, -87.64381155)"}
{"Building ID":256670,"Address":"1 S Leavitt Street","Zip":60612,"Cohort - Sector":"Residential","Cohort - Size":"> 50000 Sq Ft","Verification Year":2026.0,"Community Area Name":"Near West Side","Community Area Number":28,"Ward":27.0,"Latitude":41.88425,"Longitude":-87.63245,"Location":"(41.88425, -87.63245)"}
{"Building ID":101838,"Address":"191 N Wacker Dr","Zip":60606,"Cohort - Sector":"Commercial","Cohort - Size":"> 250000 Sq Ft","Verification Year":2024.0,"Community Area Name":"Loop","Community Area Number":32,"Ward":42.0,"Latitude":41.88538256,"Longitude":-87.63643849,"Location":"(41.88538256, -87.63643849)"}
{"Building ID":238097,"Address":"111 S Morgan St","Zip":60607,"Cohort - Sector":"Residential","Cohort - Size":"> 250000 Sq Ft","Verification Year":2024.0,"Community Area Name":"Near West Side","Community Area Number":28,"Ward":25.0,"Latitude":41.8796953,"Longitude":-87.65162494,"Location":"(41.8796953, -87.65162494)"}
{"Building ID":255924,"Address":"325 S Paulina St","Zip":60612,"Cohort - Sector":"Commercial","Cohort - Size":"> 50000 Sq Ft","Verification Year":2024.0,"Community Area Name":"Near West Side","Community Area Number":28,"Ward":27.0,"Latitude":41.8776449,"Longitude":-87.6741299,"Location":"(41.8776449, -87.6741299)"}
{"Building ID":173929,"Address":"6701 S Crandon Ave","Zip":60649,"Cohort - Sector":"Residential","Cohort - Size":"> 50000 Sq Ft","Verification Year":2023.0,"Community Area Name":"South Shore","Community Area Number":43,"Ward":5.0,"Latitude":41.76259226,"Longitude":-87.57231648,"Location":"(41.76259226, -87.57231648)"}
{"Building ID":257000,"Address":"445 W Erie","Zip":60654,"Cohort - Sector":"Commercial","Cohort - Size":"> 50000 Sq Ft","Verification Year":2026.0,"Community Area Name":"Near North Side","Community Area Number":8,"Ward":42.0,"Latitude":41.892395,"Longitude":-87.6338,"Location":"(41.892395, -87.6338)"}
{"Building ID":251255,"Address":"1235 S Prairie Ave","Zip":60605,"Cohort - Sector":"Residential","Cohort - Size":"> 250000 Sq Ft","Verification Year":2024.0,"Community Area Name":"Near South Side","Community Area Number":33,"Ward":3.0,"Latitude":41.86619413,"Longitude":-87.62121604,"Location":"(41.86619413, -87.62121604)"}
{"Building ID":250117,"Address":"1525 S California Ave","Zip":60608,"Cohort - Sector":"Commercial","Cohort - Size":"> 250000 Sq Ft","Verification Year":2026.0,"Community Area Name":"North Lawndale","Community Area Number":29,"Ward":28.0,"Latitude":41.86035602,"Longitude":-87.69567108,"Location":"(41.86035602, -87.69567108)"}
{"Building ID":158142,"Address":"445 E Ohio St","Zip":60611,"Cohort - Sector":"Residential","Cohort - Size":"> 250000 Sq Ft","Verification Year":2024.0,"Community Area Name":"Near North Side","Community Area Number":8,"Ward":42.0,"Latitude":41.89224062,"Longitude":-87.61627223,"Location":"(41.89224062, -87.61627223)"}
{"Building ID":255948,"Address":"728 N Morgan St","Zip":60642,"Cohort - Sector":"Residential","Cohort - Size":"> 250000 Sq Ft","Verification Year":2025.0,"Community Area Name":"West Town","Community Area Number":24,"Ward":27.0,"Latitude":41.89598,"Longitude":-87.66056,"Location":"(41.89598, -87.66056)"}
{"Building ID":254364,"Address":"28 N Franklin St","Zip":60606,"Cohort - Sector":"Residential","Cohort - Size":"> 50000 Sq Ft","Verification Year":2024.0,"Community Area Name":"Loop","Community Area Number":32,"Ward":42.0,"Latitude":41.88319104,"Longitude":-87.63527825,"Location":"(41.88319104, -87.63527825)"}
{"Building ID":121093,"Address":"1430 S Ashland Ave","Zip":60608,"Cohort - Sector":"Commercial","Cohort - Size":"> 50000 Sq Ft","Verification Year":2024.0,"Community Area Name":"Near West Side","Community Area Number":28,"Ward":28.0,"Latitude":41.86202556,"Longitude":-87.66781544,"Location":"(41.86202556, -87.66781544)"}
{"Building ID":255009,"Address":"750 N Hudson Ave","Zip":60654,"Cohort - Sector":"Residential","Cohort - Size":"> 250000 Sq Ft","Verification Year":2025.0,"Community Area Name":"Near North Side","Community Area Number":8,"Ward":42.0,"Latitude":41.89622411,"Longitude":-87.64008035,"Location":"(41.89622411, -87.64008035)"}
{"Building ID":158403,"Address":"565 W Adams St","Zip":60661,"Cohort - Sector":"Commercial","Cohort - Size":"> 250000 Sq Ft","Verification Year":2024.0,"Community Area Name":"Near West Side","Community Area Number":28,"Ward":42.0,"Latitude":41.87897403,"Longitude":-87.64212148,"Location":"(41.87897403, -87.64212148)"}
{"Building ID":251696,"Address":"5235 S State St","Zip":60609,"Cohort - Sector":"Commercial","Cohort - Size":"> 50000 Sq Ft","Verification Year":2025.0,"Community Area Name":"Washington Park","Community Area Number":40,"Ward":3.0,"Latitude":41.79939552,"Longitude":-87.62577916,"Location":"(41.79939552, -87.62577916)"}
{"Building ID":252326,"Address":"6200-42 N Hoyne Ave","Zip":60659,"Cohort - Sector":"Residential","Cohort - Size":"> 50000 Sq Ft","Verification Year":2025.0,"Community Area Name":"West Ridge","Community Area Number":2,"Ward":50.0,"Latitude":41.99047176,"Longitude":-87.70486537,"Location":"(41.99047176, -87.70486537)"}
{"Building ID":160279,"Address":"151 - 155 N Michigan Ave","Zip":60601,"Cohort - Sector":"Residential","Cohort - Size":"> 250000 Sq Ft","Verification Year":2024.0,"Community Area Name":"Loop","Community Area Number":32,"Ward":42.0,"Latitude":41.88468249,"Longitude":-87.62412202,"Location":"(41.88468249, -87.62412202)"}
{"Building ID":175229,"Address":"4278  N Hazel St","Zip":60613,"Cohort - Sector":"Residential","Cohort - Size":"> 50000 Sq Ft","Verification Year":2025.0,"Community Area Name":"Uptown","Community Area Number":3,"Ward":46.0,"Latitude":41.95402016,"Longitude":-87.6620278,"Location":"(41.95402016, -87.6620278)"}
{"Building ID":164537,"Address":"800 W Lawrence Ave","Zip":60640,"Cohort - Sector":"Residential","Cohort - Size":"> 50000 Sq Ft","Verification Year":2025.0,"Community Area Name":"Uptown","Community Area Number":3,"Ward":46.0,"Latitude":41.96940223,"Longitude":-87.65096505,"Location":"(41.96940223, -87.65096505)"}
{"Building ID":102032,"Address":"450  W Briar Pl","Zip":60657,"Cohort - Sector":"Residential","Cohort - Size":"> 50000 Sq Ft","Verification Year":2025.0,"Community Area Name":"Lake View","Community Area Number":6,"Ward":44.0,"Latitude":41.9398511,"Longitude":-87.65844752,"Location":"(41.9398511, -87.65844752)"}
{"Building ID":256792,"Address":"845 W Madison St","Zip":60607,"Cohort - Sector":"Residential","Cohort - Size":"> 250000 Sq Ft","Verification Year":2023.0,"Community Area Name":"Near West Side","Community Area Number":28,"Ward":27.0,"Latitude":41.88321,"Longitude":-87.65877,"Location":"(41.88321, -87.65877)"}
{"Building ID":251716,"Address":"11311 S Forrestville Ave","Zip":60628,"Cohort - Sector":"Commercial","Cohort - Size":"> 50000 Sq Ft","Verification Year":2025.0,"Community Area Name":"Pullman","Community Area Number":50,"Ward":9.0,"Latitude":41.68869044,"Longitude":-87.60883165,"Location":"(41.68869044, -87.60883165)"}
{"Building ID":172641,"Address":"10935 S Halsted St","Zip":60628,"Cohort - Sector":"Commercial","Cohort - Size":"> 50000 Sq Ft","Verification Year":2024.0,"Community Area Name":"Roseland","Community Area Number":49,"Ward":34.0,"Latitude":41.69618207,"Longitude":-87.64217052,"Location":"(41.69618207, -87.64217052)"}
{"Building ID":173497,"Address":"6312 N Nagle Ave","Zip":60646,"Cohort - Sector":"Commercial","Cohort - Size":"> 50000 Sq Ft","Verification Year":2025.0,"Community Area Name":"Norwood Park","Community Area Number":10,"Ward":41.0,"Latitude":41.99589087,"Longitude":-87.78753092,"Location":"(41.99589087, -87.78753092)"}
{"Building ID":165253,"Address":"1850  W Roosevelt Rd","Zip":60608,"Cohort - Sector":"Commercial","Cohort - Size":"> 50000 Sq Ft","Verification Year":2024.0,"Community Area Name":"Near West Side","Community Area Number":28,"Ward":27.0,"Latitude":41.84915346,"Longitude":-87.67089596,"Location":"(41.84915346, -87.67089596)"}
{"Building ID":252071,"Address":"520 S State St","Zip":60605,"Cohort - Sector":"Residential","Cohort - Size":"> 250000 Sq Ft","Verification Year":2027.0,"Community Area Name":"Loop","Community Area Number":32,"Ward":4.0,"Latitude":41.87510719,"Longitude":-87.6279746,"Location":"(41.87510719, -87.6279746)"}
{"Building ID":119987,"Address":"7030 S Ashland Ave","Zip":60636,"Cohort - Sector":"Commercial","Cohort - Size":"> 50000 Sq Ft","Verification Year":2024.0,"Community Area Name":"West Englewood","Community Area Number":67,"Ward":17.0,"Latitude":41.76547365,"Longitude":-87.66448496,"Location":"(41.76547365, -87.66448496)"}
{"Building ID":130758,"Address":"651  S Wells St","Zip":60607,"Cohort - Sector":"Residential","Cohort - Size":"> 50000 Sq Ft","Verification Year":2025.0,"Community Area Name":"Loop","Community Area Number":32,"Ward":25.0,"Latitude":41.87399385,"Longitude":-87.651678,"Location":"(41.87399385, -87.651678)"}
{"Building ID":136830,"Address":"3400 3428 S Indiana Ave","Zip":60616,"Cohort - Sector":"Commercial","Cohort - Size":"> 50000 Sq Ft","Verification Year":2024.0,"Community Area Name":"Douglas","Community Area Number":35,"Ward":3.0,"Latitude":41.84550365,"Longitude":-87.63055693,"Location":"(41.84550365, -87.63055693)"}
{"Building ID":254344,"Address":"5831 N Northwest Hwy","Zip":60631,"Cohort - Sector":"Commercial","Cohort - Size":"> 50000 Sq Ft","Verification Year":2024.0,"Community Area Name":"Norwood Park","Community Area Number":10,"Ward":41.0,"Latitude":41.9945154,"Longitude":-87.80885,"Location":"(41.9945154, -87.80885)"}
{"Building ID":158420,"Address":"29 S Lasalle St","Zip":60603,"Cohort - Sector":"Residential","Cohort - Size":"> 50000 Sq Ft","Verification Year":2026.0,"Community Area Name":"Loop","Community Area Number":32,"Ward":42.0,"Latitude":41.88116139,"Longitude":-87.63181347,"Location":"(41.88116139, -87.63181347)"}
{"Building ID":172106,"Address":"55  W Chestnut St","Zip":60610,"Cohort - Sector":"Residential","Cohort - Size":"> 50000 Sq Ft","Verification Year":2025.0,"Community Area Name":"Near North Side","Community Area Number":8,"Ward":2.0,"Latitude":41.9037528,"Longitude":-87.63558845,"Location":"(41.9037528, -87.63558845)"}
{"Building ID":242188,"Address":"345 N Lasalle St","Zip":60654,"Cohort - Sector":"Residential","Cohort - Size":"> 250000 Sq Ft","Verification Year":2024.0,"Community Area Name":"Near North Side","Community Area Number":8,"Ward":42.0,"Latitude":41.888412,"Longitude":-87.632465,"Location":"(41.888412, -87.632465)"}
{"Building ID":173883,"Address":"1029 1051 W North Shore Ave","Zip":60626,"Cohort - Sector":"Residential","Cohort - Size":"> 50000 Sq Ft","Verification Year":2023.0,"Community Area Name":"Rogers Park","Community Area Number":1,"Ward":49.0,"Latitude":42.01036185,"Longitude":-87.66829765,"Location":"(42.01036185, -87.66829765)"}
{"Building ID":260104,"Address":"5101 5113 S Ingleside Ave","Zip":60615,"Cohort - Sector":"Residential","Cohort - Size":"> 50000 Sq Ft","Verification Year":2025.0,"Community Area Name":"Hyde Park","Community Area Number":41,"Ward":5.0,"Latitude":41.80224043,"Longitude":-87.60332678,"Location":"(41.80224043, -87.60332678)"}
{"Building ID":230281,"Address":"3440 N Lake Shore Dr","Zip":60657,"Cohort - Sector":"Residential","Cohort - Size":"> 250000 Sq Ft","Verification Year":2024.0,"Community Area Name":"Lake View","Community Area Number":6,"Ward":44.0,"Latitude":41.94435889,"Longitude":-87.64163127,"Location":"(41.94435889, -87.64163127)"}
{"Building ID":103628,"Address":"1000 W Fulton St","Zip":60607,"Cohort - Sector":"Commercial","Cohort - Size":"> 250000 Sq Ft","Verification Year":2024.0,"Community Area Name":"Near West Side","Community Area Number":28,"Ward":27.0,"Latitude":41.88677646,"Longitude":-87.65227883,"Location":"(41.88677646, -87.65227883)"}
{"Building ID":101919,"Address":"140 S Dearborn St","Zip":60603,"Cohort - Sector":"Commercial","Cohort - Size":"> 250000 Sq Ft","Verification Year":2023.0,"Community Area Name":"Loop","Community Area Number":32,"Ward":42.0,"Latitude":41.87977522,"Longitude":-87.62973114,"Location":"(41.87977522, -87.62973114)"}
{"Building ID":103689,"Address":"404 W Harrison St","Zip":60607,"Cohort - Sector":"Commercial","Cohort - Size":"> 250000 Sq Ft","Verification Year":2025.0,"Community Area Name":"Near West Side","Community Area Number":28,"Ward":25.0,"Latitude":41.87665199,"Longitude":-87.63815929,"Location":"(41.87665199, -87.63815929)"}
{"Building ID":254022,"Address":"220 E Walton Pl","Zip":60611,"Cohort - Sector":"Residential","Cohort - Size":"> 50000 Sq Ft","Verification Year":2025.0,"Community Area Name":"Near North Side","Community Area Number":8,"Ward":2.0,"Latitude":41.8957877,"Longitude":-87.62247,"Location":"(41.8957877, -87.62247)"}
{"Building ID":251709,"Address":"4950 N Avers Ave","Zip":60625,"Cohort - Sector":"Commercial","Cohort - Size":"> 50000 Sq Ft","Verification Year":2025.0,"Community Area Name":"Albany Park","Community Area Number":14,"Ward":39.0,"Latitude":41.97129971,"Longitude":-87.72626938,"Location":"(41.97129971, -87.72626938)"}
{"Building ID":131291,"Address":"29 N Wacker Dr","Zip":60606,"Cohort - Sector":"Commercial","Cohort - Size":"> 50000 Sq Ft","Verification Year":2024.0,"Community Area Name":"Loop","Community Area Number":32,"Ward":42.0,"Latitude":41.88268681,"Longitude":-87.63674119,"Location":"(41.88268681, -87.63674119)"}
{"Building ID":112954,"Address":"1509 1521 W Morse Ave","Zip":60626,"Cohort - Sector":"Residential","Cohort - Size":"> 50000 Sq Ft","Verification Year":2024.0,"Community Area Name":"Rogers Park","Community Area Number":1,"Ward":49.0,"Latitude":42.01036185,"Longitude":-87.66829765,"Location":"(42.01036185, -87.66829765)"}
{"Building ID":101705,"Address":"1607  E 50Th Pl","Zip":60615,"Cohort - Sector":"Residential","Cohort - Size":"> 50000 Sq Ft","Verification Year":2025.0,"Community Area Name":"Kenwood","Community Area Number":39,"Ward":5.0,"Latitude":41.80224043,"Longitude":-87.60332678,"Location":"(41.80224043, -87.60332678)"}
{"Building ID":257027,"Address":"8711 W Bryn Mawr","Zip":60631,"Cohort - Sector":"Residential","Cohort - Size":"> 50000 Sq Ft","Verification Year":2026.0,"Community Area Name":"O'Hare","Community Area Number":76,"Ward":41.0,"Latitude":41.9991,"Longitude":-87.81389,"Location":"(41.9991, -87.81389)"}
{"Building ID":173708,"Address":"2756 2760 N Pine Grove Ave","Zip":60614,"Cohort - Sector":"Residential","Cohort - Size":"> 50000 Sq Ft","Verification Year":2025.0,"Community Area Name":"Lincoln Park","Community Area Number":7,"Ward":43.0,"Latitude":41.92201051,"Longitude":-87.65461957,"Location":"(41.92201051, -87.65461957)"}
{"Building ID":104431,"Address":"5948 5958 N Broadway","Zip":60660,"Cohort - Sector":"Residential","Cohort - Size":"> 50000 Sq Ft","Verification Year":2023.0,"Community Area Name":"Edgewater","Community Area Number":77,"Ward":48.0,"Latitude":41.99090057,"Longitude":-87.66660744,"Location":"(41.99090057, -87.66660744)"}
{"Building ID":105360,"Address":"200  N Central Ave","Zip":60644,"Cohort - Sector":"Residential","Cohort - Size":"> 50000 Sq Ft","Verification Year":2025.0,"Community Area Name":"Austin","Community Area Number":25,"Ward":29.0,"Latitude":41.88039405,"Longitude":-87.75826967,"Location":"(41.88039405, -87.75826967)"}
{"Building ID":159099,"Address":"20 E Chestnut St","Zip":60611,"Cohort - Sector":"Residential","Cohort - Size":"> 250000 Sq Ft","Verification Year":2024.0,"Community Area Name":"Near North Side","Community Area Number":8,"Ward":2.0,"Latitude":41.89869734,"Longitude":-87.62731284,"Location":"(41.89869734, -87.62731284)"}
{"Building ID":173655,"Address":"15 E Ohio St","Zip":60611,"Cohort - Sector":"Residential","Cohort - Size":"> 50000 Sq Ft","Verification Year":2024.0,"Community Area Name":"Near North Side","Community Area Number":8,"Ward":42.0,"Latitude":41.89224796,"Longitude":-87.62750277,"Location":"(41.89224796, -87.62750277)"}
{"Building ID":156999,"Address":"8101 S Lasalle St","Zip":60620,"Cohort - Sector":"Commercial","Cohort - Size":"> 50000 Sq Ft","Verification Year":2025.0,"Community Area Name":"Chatham","Community Area Number":44,"Ward":21.0,"Latitude":41.74666167,"Longitude":-87.62760345,"Location":"(41.74666167, -87.62760345)"}
{"Building ID":103598,"Address":"222 N Lasalle St","Zip":60601,"Cohort - Sector":"Commercial","Cohort - Size":"> 250000 Sq Ft","Verification Year":2026.0,"Community Area Name":"Loop","Community Area Number":32,"Ward":42.0,"Latitude":41.88651518,"Longitude":-87.6332446,"Location":"(41.88651518, -87.6332446)"}
{"Building ID":103594,"Address":"455 N Cityfront Plaza Dr","Zip":60611,"Cohort - Sector":"Commercial","Cohort - Size":"> 250000 Sq Ft","Verification Year":2025.0,"Community Area Name":"Near North Side","Community Area Number":8,"Ward":42.0,"Latitude":41.890071,"Longitude":-87.621562,"Location":"(41.890071, -87.621562)"}
{"Building ID":102803,"Address":"4845  S Western Ave","Zip":60609,"Cohort - Sector":"Commercial","Cohort - Size":"> 50000 Sq Ft","Verification Year":2025.0,"Community Area Name":"New City","Community Area Number":61,"Ward":15.0,"Latitude":41.81195152,"Longitude":-87.65512794,"Location":"(41.81195152, -87.65512794)"}
{"Building ID":251325,"Address":"2311 N Racine Ave","Zip":60614,"Cohort - Sector":"Commercial","Cohort - Size":"> 50000 Sq Ft","Verification Year":2026.0,"Community Area Name":"Lincoln Park","Community Area Number":7,"Ward":43.0,"Latitude":41.92390285,"Longitude":-87.65817716,"Location":"(41.92390285, -87.65817716)"}
{"Building ID":251498,"Address":"3600 W 5Th Ave","Zip":60624,"Cohort - Sector":"Commercial","Cohort - Size":"> 50000 Sq Ft","Verification Year":2025.0,"Community Area Name":"East Garfield Park","Community Area Number":27,"Ward":28.0,"Latitude":41.875687,"Longitude":-87.715836,"Location":"(41.875687, -87.715836)"}
{"Building ID":129459,"Address":"2430 N Halsted St","Zip":60614,"Cohort - Sector":"Commercial","Cohort - Size":"> 50000 Sq Ft","Verification Year":2025.0,"Community Area Name":"Lincoln Park","Community Area Number":7,"Ward":43.0,"Latitude":41.92651485,"Longitude":-87.64916423,"Location":"(41.92651485, -87.64916423)"}
{"Building ID":175780,"Address":"5020 5030 S Woodlawn Ave","Zip":60615,"Cohort - Sector":"Residential","Cohort - Size":"> 50000 Sq Ft","Verification Year":2023.0,"Community Area Name":"Kenwood","Community Area Number":39,"Ward":4.0,"Latitude":41.80224043,"Longitude":-87.60332678,"Location":"(41.80224043, -87.60332678)"}
{"Building ID":174155,"Address":"1040  W Granville Ave","Zip":60660,"Cohort - Sector":"Residential","Cohort - Size":"> 50000 Sq Ft","Verification Year":2024.0,"Community Area Name":"Edgewater","Community Area Number":77,"Ward":48.0,"Latitude":41.99090057,"Longitude":-87.66660744,"Location":"(41.99090057, -87.66660744)"}
{"Building ID":160329,"Address":"50 W 71St St","Zip":60621,"Cohort - Sector":"Residential","Cohort - Size":"> 250000 Sq Ft","Verification Year":2025.0,"Community Area Name":"Greater Grand Crossing","Community Area Number":69,"Ward":6.0,"Latitude":41.76573166,"Longitude":-87.62237195,"Location":"(41.76573166, -87.62237195)"}
{"Building ID":127068,"Address":"801- 831 W 119Th St.","Zip":60643,"Cohort - Sector":"Commercial","Cohort - Size":"> 50000 Sq Ft","Verification Year":2025.0,"Community Area Name":"West Pullman","Community Area Number":53,"Ward":34.0,"Latitude":41.67776705,"Longitude":-87.64341842,"Location":"(41.67776705, -87.64341842)"}
{"Building ID":173858,"Address":"6339 N Sheridan Rd","Zip":60660,"Cohort - Sector":"Commercial","Cohort - Size":"> 50000 Sq Ft","Verification Year":2024.0,"Community Area Name":"Edgewater","Community Area Number":77,"Ward":48.0,"Latitude":41.99781208,"Longitude":-87.65504913,"Location":"(41.99781208, -87.65504913)"}
{"Building ID":256961,"Address":"1201 N Clark","Zip":60610,"Cohort - Sector":"Residential","Cohort - Size":"> 50000 Sq Ft","Verification Year":2025.0,"Community Area Name":"Near North Side","Community Area Number":8,"Ward":2.0,"Latitude":41.90423,"Longitude":-87.638225,"Location":"(41.90423, -87.638225)"}
{"Building ID":113548,"Address":"1450  N Astor St","Zip":60610,"Cohort - Sector":"Residential","Cohort - Size":"> 50000 Sq Ft","Verification Year":2024.0,"Community Area Name":"Near North Side","Community Area Number":8,"Ward":43.0,"Latitude":41.9037528,"Longitude":-87.63558845,"Location":"(41.9037528, -87.63558845)"}
{"Building ID":175551,"Address":"11730 S Marshfield Ave","Zip":60643,"Cohort - Sector":"Commercial","Cohort - Size":"> 50000 Sq Ft","Verification Year":2026.0,"Community Area Name":"Morgan Park","Community Area Number":75,"Ward":34.0,"Latitude":41.68050591,"Longitude":-87.66246295,"Location":"(41.68050591, -87.66246295)"}
{"Building ID":252024,"Address":"9535 S Loomis St","Zip":60643,"Cohort - Sector":"Commercial","Cohort - Size":"> 50000 Sq Ft","Verification Year":2024.0,"Community Area Name":"Washington Heights","Community Area Number":73,"Ward":21.0,"Latitude":41.72018758,"Longitude":-87.65671845,"Location":"(41.72018758, -87.65671845)"}
{"Building ID":256798,"Address":"2405 W Hutchinson St","Zip":60618,"Cohort - Sector":"Residential","Cohort - Size":"> 50000 Sq Ft","Verification Year":2023.0,"Community Area Name":"North Center","Community Area Number":5,"Ward":47.0,"Latitude":41.950725,"Longitude":-87.70793,"Location":"(41.950725, -87.70793)"}
{"Building ID":101900,"Address":"309 W Washngton St","Zip":60606,"Cohort - Sector":"Commercial","Cohort - Size":"> 50000 Sq Ft","Verification Year":2024.0,"Community Area Name":"Loop","Community Area Number":32,"Ward":42.0,"Latitude":41.88299541,"Longitude":-87.63565914,"Location":"(41.88299541, -87.63565914)"}
{"Building ID":175346,"Address":"4700  S Cottage Grove Ave","Zip":60615,"Cohort - Sector":"Residential","Cohort - Size":"> 50000 Sq Ft","Verification Year":2025.0,"Community Area Name":"Grand Boulevard","Community Area Number":38,"Ward":4.0,"Latitude":41.80224043,"Longitude":-87.60332678,"Location":"(41.80224043, -87.60332678)"}
{"Building ID":157170,"Address":"201 N Clark St","Zip":60601,"Cohort - Sector":"Commercial","Cohort - Size":"> 50000 Sq Ft","Verification Year":2023.0,"Community Area Name":"Loop","Community Area Number":32,"Ward":42.0,"Latitude":41.88592007,"Longitude":-87.63017148,"Location":"(41.88592007, -87.63017148)"}
{"Building ID":251394,"Address":"6140 S Melvina Ave","Zip":60638,"Cohort - Sector":"Commercial","Cohort - Size":"> 50000 Sq Ft","Verification Year":2025.0,"Community Area Name":"Clearing","Community Area Number":64,"Ward":13.0,"Latitude":41.77825461,"Longitude":-87.77898519,"Location":"(41.77825461, -87.77898519)"}
{"Building ID":251489,"Address":"3444 W Wabansia Ave","Zip":60647,"Cohort - Sector":"Commercial","Cohort - Size":"> 50000 Sq Ft","Verification Year":2025.0,"Community Area Name":"Humboldt Park","Community Area Number":23,"Ward":26.0,"Latitude":41.91251827,"Longitude":-87.71313894,"Location":"(41.91251827, -87.71313894)"}
{"Building ID":257126,"Address":"5151 N Lincoln Ave","Zip":60625,"Cohort - Sector":null,"Cohort - Size":null,"Verification Year":2024.0,"Community Area Name":"Lincoln Square","Community Area Number":4,"Ward":40.0,"Latitude":41.97178,"Longitude":-87.690595,"Location":"(41.97178, -87.690595)"}
{"Building ID":251352,"Address":"501 - 505 W 35Th St","Zip":60629,"Cohort - Sector":"Municipal","Cohort - Size":"> 50000 Sq Ft","Verification Year":2023.0,"Community Area Name":"Bridgeport","Community Area Number":60,"Ward":11.0,"Latitude":41.830808,"Longitude":-87.639877,"Location":"(41.830808, -87.639877)"}
{"Building ID":256787,"Address":"121 E 47Th St","Zip":60653,"Cohort - Sector":"Commercial","Cohort - Size":"> 50000 Sq Ft","Verification Year":2023.0,"Community Area Name":"Grand Boulevard","Community Area Number":38,"Ward":3.0,"Latitude":41.816805,"Longitude":-87.607775,"Location":"(41.816805, -87.607775)"}
{"Building ID":253967,"Address":"20 N State St","Zip":60602,"Cohort - Sector":"Residential","Cohort - Size":"> 50000 Sq Ft","Verification Year":2024.0,"Community Area Name":"Loop","Community Area Number":32,"Ward":42.0,"Latitude":41.8833006,"Longitude":-87.62933043,"Location":"(41.8833006, -87.62933043)"}
{"Building ID":254035,"Address":"725 W Irving Park Rd","Zip":60613,"Cohort - Sector":"Residential","Cohort - Size":"> 50000 Sq Ft","Verification Year":2024.0,"Community Area Name":"Lake View","Community Area Number":6,"Ward":46.0,"Latitude":41.9543088,"Longitude":-87.6618,"Location":"(41.9543088, -87.6618)"}
{"Building ID":252266,"Address":"4829 S Cottage Grove","Zip":60615,"Cohort - Sector":"Residential","Cohort - Size":"> 50000 Sq Ft","Verification Year":2024.0,"Community Area Name":"Kenwood","Community Area Number":39,"Ward":4.0,"Latitude":41.807228,"Longitude":-87.60648706,"Location":"(41.807228, -87.60648706)"}
{"Building ID":164777,"Address":"840 W Irving Park Rd","Zip":60613,"Cohort - Sector":"Commercial","Cohort - Size":"> 50000 Sq Ft","Verification Year":2024.0,"Community Area Name":"Uptown","Community Area Number":3,"Ward":46.0,"Latitude":41.954554,"Longitude":-87.651379,"Location":"(41.954554, -87.651379)"}
{"Building ID":128905,"Address":"2026  N Clark St","Zip":60614,"Cohort - Sector":"Commercial","Cohort - Size":"> 50000 Sq Ft","Verification Year":2025.0,"Community Area Name":"Lincoln Park","Community Area Number":7,"Ward":43.0,"Latitude":41.92201051,"Longitude":-87.65461957,"Location":"(41.92201051, -87.65461957)"}
{"Building ID":101739,"Address":"1 S Dearborn","Zip":60603,"Cohort - Sector":"Commercial","Cohort - Size":"> 250000 Sq Ft","Verification Year":2024.0,"Community Area Name":"Loop","Community Area Number":32,"Ward":42.0,"Latitude":41.88165139,"Longitude":-87.62884674,"Location":"(41.88165139, -87.62884674)"}
{"Building ID":101760,"Address":"35 W Wacker Dr","Zip":60601,"Cohort - Sector":"Commercial","Cohort - Size":"> 250000 Sq Ft","Verification Year":2024.0,"Community Area Name":"Loop","Community Area Number":32,"Ward":42.0,"Latitude":41.88642141,"Longitude":-87.62903061,"Location":"(41.88642141, -87.62903061)"}
{"Building ID":117309,"Address":"2800  W Montrose Ave","Zip":60618,"Cohort - Sector":"Commercial","Cohort - Size":"> 50000 Sq Ft","Verification Year":2025.0,"Community Area Name":"Albany Park","Community Area Number":14,"Ward":33.0,"Latitude":41.94672055,"Longitude":-87.70319673,"Location":"(41.94672055, -87.70319673)"}
{"Building ID":242162,"Address":"635 N Dearborn St","Zip":60654,"Cohort - Sector":"Residential","Cohort - Size":"> 250000 Sq Ft","Verification Year":2024.0,"Community Area Name":"Near North Side","Community Area Number":8,"Ward":42.0,"Latitude":41.89353083,"Longitude":-87.62967379,"Location":"(41.89353083, -87.62967379)"}
{"Building ID":156557,"Address":"542 S Dearborn St","Zip":60605,"Cohort - Sector":"Commercial","Cohort - Size":"> 50000 Sq Ft","Verification Year":2023.0,"Community Area Name":"Loop","Community Area Number":32,"Ward":4.0,"Latitude":41.87476011,"Longitude":-87.62948461,"Location":"(41.87476011, -87.62948461)"}
{"Building ID":251546,"Address":"3425 N Major Ave","Zip":60634,"Cohort - Sector":"Commercial","Cohort - Size":"> 50000 Sq Ft","Verification Year":2025.0,"Community Area Name":"Portage Park","Community Area Number":15,"Ward":36.0,"Latitude":41.94263555,"Longitude":-87.76852525,"Location":"(41.94263555, -87.76852525)"}
{"Building ID":237722,"Address":"3100 N Lake Shore Dr","Zip":60657,"Cohort - Sector":"Residential","Cohort - Size":"> 250000 Sq Ft","Verification Year":2024.0,"Community Area Name":"Lake View","Community Area Number":6,"Ward":44.0,"Latitude":41.93804047,"Longitude":-87.63807513,"Location":"(41.93804047, -87.63807513)"}
{"Building ID":165425,"Address":"2320  W 113Th Pl","Zip":60643,"Cohort - Sector":"Commercial","Cohort - Size":"> 250000 Sq Ft","Verification Year":2023.0,"Community Area Name":"Morgan Park","Community Area Number":75,"Ward":19.0,"Latitude":41.6981819,"Longitude":-87.66236671,"Location":"(41.6981819, -87.66236671)"}
{"Building ID":116144,"Address":"633  S Plymouth Ct","Zip":60605,"Cohort - Sector":"Residential","Cohort - Size":"> 50000 Sq Ft","Verification Year":2024.0,"Community Area Name":"Loop","Community Area Number":32,"Ward":4.0,"Latitude":41.86863212,"Longitude":-87.62730687,"Location":"(41.86863212, -87.62730687)"}
{"Building ID":260083,"Address":"6930 6950 S South Shore Dr","Zip":60649,"Cohort - Sector":"Residential","Cohort - Size":"> 50000 Sq Ft","Verification Year":2023.0,"Community Area Name":"South Shore","Community Area Number":43,"Ward":5.0,"Latitude":41.76259226,"Longitude":-87.57231648,"Location":"(41.76259226, -87.57231648)"}
{"Building ID":234641,"Address":"6833 N Kedzie Ave","Zip":60645,"Cohort - Sector":"Residential","Cohort - Size":"> 250000 Sq Ft","Verification Year":2024.0,"Community Area Name":"West Ridge","Community Area Number":2,"Ward":50.0,"Latitude":42.00574707,"Longitude":-87.70855729,"Location":"(42.00574707, -87.70855729)"}
{"Building ID":250141,"Address":"180 N Wacker Dr","Zip":60606,"Cohort - Sector":"Commercial","Cohort - Size":"> 50000 Sq Ft","Verification Year":2023.0,"Community Area Name":"Loop","Community Area Number":32,"Ward":42.0,"Latitude":41.88533471,"Longitude":-87.63725343,"Location":"(41.88533471, -87.63725343)"}
{"Building ID":103739,"Address":"20 N Clark St","Zip":60602,"Cohort - Sector":"Commercial","Cohort - Size":"> 250000 Sq Ft","Verification Year":2025.0,"Community Area Name":"Loop","Community Area Number":32,"Ward":42.0,"Latitude":41.88230282,"Longitude":-87.63117675,"Location":"(41.88230282, -87.63117675)"}
{"Building ID":251544,"Address":"3826 W 58Th St","Zip":60629,"Cohort - Sector":"Commercial","Cohort - Size":"> 50000 Sq Ft","Verification Year":2025.0,"Community Area Name":"West Elsdon","Community Area Number":62,"Ward":23.0,"Latitude":41.78841222,"Longitude":-87.71972596,"Location":"(41.78841222, -87.71972596)"}
{"Building ID":251776,"Address":"271 N Albany Ave","Zip":60612,"Cohort - Sector":"Residential","Cohort - Size":"> 50000 Sq Ft","Verification Year":2025.0,"Community Area Name":"East Garfield Park","Community Area Number":27,"Ward":27.0,"Latitude":41.88619564,"Longitude":-87.70330877,"Location":"(41.88619564, -87.70330877)"}
{"Building ID":251775,"Address":"251 N Albany Avenue","Zip":60612,"Cohort - Sector":"Residential","Cohort - Size":"> 50000 Sq Ft","Verification Year":2025.0,"Community Area Name":"East Garfield Park","Community Area Number":27,"Ward":27.0,"Latitude":41.88567519,"Longitude":-87.70343823,"Location":"(41.88567519, -87.70343823)"}
{"Building ID":252027,"Address":"8130 S California Ave","Zip":60652,"Cohort - Sector":"Commercial","Cohort - Size":"> 50000 Sq Ft","Verification Year":2024.0,"Community Area Name":"Ashburn","Community Area Number":70,"Ward":18.0,"Latitude":41.74503507,"Longitude":-87.69334699,"Location":"(41.74503507, -87.69334699)"}
{"Building ID":241873,"Address":"1160 S Michigan Ave","Zip":60605,"Cohort - Sector":"Residential","Cohort - Size":"> 250000 Sq Ft","Verification Year":2024.0,"Community Area Name":"Loop","Community Area Number":32,"Ward":4.0,"Latitude":41.86776111,"Longitude":-87.62464689,"Location":"(41.86776111, -87.62464689)"}
{"Building ID":254164,"Address":"6515 N Kenmore Ave","Zip":60660,"Cohort - Sector":"Commercial","Cohort - Size":"> 50000 Sq Ft","Verification Year":2024.0,"Community Area Name":"Rogers Park","Community Area Number":1,"Ward":49.0,"Latitude":42.00094554,"Longitude":-87.65816364,"Location":"(42.00094554, -87.65816364)"}
{"Building ID":175398,"Address":"5630  S Michigan Ave","Zip":60637,"Cohort - Sector":"Residential","Cohort - Size":"> 50000 Sq Ft","Verification Year":2023.0,"Community Area Name":"Washington Park","Community Area Number":40,"Ward":20.0,"Latitude":41.78046327,"Longitude":-87.6053081,"Location":"(41.78046327, -87.6053081)"}
{"Building ID":124308,"Address":"10900 S Doty Ave","Zip":60628,"Cohort - Sector":"Commercial","Cohort - Size":"> 50000 Sq Ft","Verification Year":2024.0,"Community Area Name":"Pullman","Community Area Number":50,"Ward":9.0,"Latitude":41.693399,"Longitude":-87.598728,"Location":"(41.693399, -87.598728)"}
{"Building ID":251301,"Address":"1960 N Lincoln Park West","Zip":60614,"Cohort - Sector":"Residential","Cohort - Size":"> 250000 Sq Ft","Verification Year":2024.0,"Community Area Name":"Lincoln Park","Community Area Number":7,"Ward":43.0,"Latitude":41.91805785,"Longitude":-87.63701176,"Location":"(41.91805785, -87.63701176)"}
{"Building ID":253983,"Address":"657 W Fulton St","Zip":60661,"Cohort - Sector":"Residential","Cohort - Size":"> 50000 Sq Ft","Verification Year":2025.0,"Community Area Name":"Near West Side","Community Area Number":28,"Ward":42.0,"Latitude":41.8832102,"Longitude":-87.64337484,"Location":"(41.8832102, -87.64337484)"}
{"Building ID":163380,"Address":"1101 W Jackson Blvd","Zip":60607,"Cohort - Sector":"Commercial","Cohort - Size":"> 50000 Sq Ft","Verification Year":2024.0,"Community Area Name":"Near West Side","Community Area Number":28,"Ward":25.0,"Latitude":41.877813,"Longitude":-87.654932,"Location":"(41.877813, -87.654932)"}
{"Building ID":251760,"Address":"2031 S Peoria St","Zip":60608,"Cohort - Sector":"Commercial","Cohort - Size":"> 50000 Sq Ft","Verification Year":2023.0,"Community Area Name":"Lower West Side","Community Area Number":31,"Ward":11.0,"Latitude":41.85437796,"Longitude":-87.64784268,"Location":"(41.85437796, -87.64784268)"}
{"Building ID":255925,"Address":"1955 N Richmond St","Zip":60647,"Cohort - Sector":"Residential","Cohort - Size":"> 50000 Sq Ft","Verification Year":2023.0,"Community Area Name":"Logan Square","Community Area Number":22,"Ward":1.0,"Latitude":41.9174,"Longitude":-87.68401,"Location":"(41.9174, -87.68401)"}
{"Building ID":251777,"Address":"6345 S Stewart","Zip":60621,"Cohort - Sector":"Residential","Cohort - Size":"> 50000 Sq Ft","Verification Year":2025.0,"Community Area Name":"Englewood","Community Area Number":68,"Ward":20.0,"Latitude":41.77851372,"Longitude":-87.63461273,"Location":"(41.77851372, -87.63461273)"}
{"Building ID":250164,"Address":"5440 N Cumberland Ave","Zip":60656,"Cohort - Sector":"Commercial","Cohort - Size":"> 250000 Sq Ft","Verification Year":2024.0,"Community Area Name":"O'Hare","Community Area Number":76,"Ward":41.0,"Latitude":41.97798769,"Longitude":-87.83747799,"Location":"(41.97798769, -87.83747799)"}
{"Building ID":254309,"Address":"343 W Old Town Court","Zip":60610,"Cohort - Sector":"Residential","Cohort - Size":"> 50000 Sq Ft","Verification Year":2025.0,"Community Area Name":"Near North Side","Community Area Number":8,"Ward":27.0,"Latitude":41.8842525,"Longitude":-87.63245,"Location":"(41.8842525, -87.63245)"}
{"Building ID":175894,"Address":"4900  N Sheridan Rd","Zip":60640,"Cohort - Sector":"Residential","Cohort - Size":"> 50000 Sq Ft","Verification Year":2025.0,"Community Area Name":"Uptown","Community Area Number":3,"Ward":48.0,"Latitude":41.97223008,"Longitude":-87.6645957,"Location":"(41.97223008, -87.6645957)"}
{"Building ID":227730,"Address":"4300 N Marine Dr","Zip":60613,"Cohort - Sector":"Residential","Cohort - Size":"> 50000 Sq Ft","Verification Year":2025.0,"Community Area Name":"Uptown","Community Area Number":3,"Ward":46.0,"Latitude":41.96126002,"Longitude":-87.64738594,"Location":"(41.96126002, -87.64738594)"}
{"Building ID":255935,"Address":"6253 S Cottage Grove Ave","Zip":60637,"Cohort - Sector":"Residential","Cohort - Size":"> 50000 Sq Ft","Verification Year":2025.0,"Community Area Name":"Woodlawn","Community Area Number":42,"Ward":20.0,"Latitude":41.78456,"Longitude":-87.61478,"Location":"(41.78456, -87.61478)"}
{"Building ID":127778,"Address":"7115 7129 N Ridge Blvd","Zip":60645,"Cohort - Sector":"Residential","Cohort - Size":"> 50000 Sq Ft","Verification Year":2025.0,"Community Area Name":"Rogers Park","Community Area Number":1,"Ward":49.0,"Latitude":42.01182137,"Longitude":-87.68266061,"Location":"(42.01182137, -87.68266061)"}
{"Building ID":250108,"Address":"6401 S Yale Ave","Zip":60621,"Cohort - Sector":"Residential","Cohort - Size":"> 50000 Sq Ft","Verification Year":2024.0,"Community Area Name":"Englewood","Community Area Number":68,"Ward":20.0,"Latitude":41.77776863,"Longitude":-87.63135315,"Location":"(41.77776863, -87.63135315)"}
{"Building ID":256811,"Address":"1201 E 60Th St","Zip":60637,"Cohort - Sector":"Commercial","Cohort - Size":"> 50000 Sq Ft","Verification Year":2025.0,"Community Area Name":"Woodlawn","Community Area Number":42,"Ward":20.0,"Latitude":41.77693,"Longitude":-87.609505,"Location":"(41.77693, -87.609505)"}
{"Building ID":160394,"Address":"1020 W Lawrence Ave","Zip":60640,"Cohort - Sector":"Residential","Cohort - Size":"> 50000 Sq Ft","Verification Year":2024.0,"Community Area Name":"Uptown","Community Area Number":3,"Ward":46.0,"Latitude":41.96910577,"Longitude":-87.65595452,"Location":"(41.96910577, -87.65595452)"}
{"Building ID":172685,"Address":"4821 - 4951 W North Ave","Zip":60639,"Cohort - Sector":"Commercial","Cohort - Size":"> 50000 Sq Ft","Verification Year":2024.0,"Community Area Name":"Austin","Community Area Number":25,"Ward":37.0,"Latitude":41.9083292,"Longitude":-87.74766344,"Location":"(41.9083292, -87.74766344)"}
{"Building ID":176009,"Address":"804 812 W Van Buren St","Zip":60607,"Cohort - Sector":"Residential","Cohort - Size":"> 50000 Sq Ft","Verification Year":2025.0,"Community Area Name":"Near West Side","Community Area Number":28,"Ward":27.0,"Latitude":41.87667805,"Longitude":-87.64803069,"Location":"(41.87667805, -87.64803069)"}
{"Building ID":252313,"Address":"5040 N. Pulaski","Zip":60630,"Cohort - Sector":"Commercial","Cohort - Size":"> 50000 Sq Ft","Verification Year":2026.0,"Community Area Name":"North Park","Community Area Number":13,"Ward":39.0,"Latitude":41.97209514,"Longitude":-87.75760245,"Location":"(41.97209514, -87.75760245)"}
{"Building ID":159005,"Address":"821 E 103Rd St","Zip":60628,"Cohort - Sector":"Commercial","Cohort - Size":"> 250000 Sq Ft","Verification Year":2024.0,"Community Area Name":"Pullman","Community Area Number":50,"Ward":9.0,"Latitude":41.70649646,"Longitude":-87.60268998,"Location":"(41.70649646, -87.60268998)"}
{"Building ID":256615,"Address":"25 West Randolph Street","Zip":60601,"Cohort - Sector":"Residential","Cohort - Size":"> 250000 Sq Ft","Verification Year":2024.0,"Community Area Name":"Loop","Community Area Number":32,"Ward":34.0,"Latitude":41.88425,"Longitude":-87.63245,"Location":"(41.88425, -87.63245)"}
{"Building ID":251282,"Address":"1100 N Dearborn St","Zip":60610,"Cohort - Sector":"Residential","Cohort - Size":"> 50000 Sq Ft","Verification Year":2025.0,"Community Area Name":"Near North Side","Community Area Number":8,"Ward":2.0,"Latitude":41.90201818,"Longitude":-87.63035975,"Location":"(41.90201818, -87.63035975)"}
{"Building ID":242264,"Address":"6033 N Sheridan Rd","Zip":60660,"Cohort - Sector":"Residential","Cohort - Size":"> 250000 Sq Ft","Verification Year":2024.0,"Community Area Name":"Edgewater","Community Area Number":77,"Ward":48.0,"Latitude":41.9919241,"Longitude":-87.65476923,"Location":"(41.9919241, -87.65476923)"}
{"Building ID":241410,"Address":"1440 N State Pkwy","Zip":60610,"Cohort - Sector":"Residential","Cohort - Size":"> 50000 Sq Ft","Verification Year":2025.0,"Community Area Name":"Near North Side","Community Area Number":8,"Ward":2.0,"Latitude":41.90899574,"Longitude":-87.62922625,"Location":"(41.90899574, -87.62922625)"}
{"Building ID":173970,"Address":"1655 E 95Th St","Zip":60617,"Cohort - Sector":"Commercial","Cohort - Size":"> 50000 Sq Ft","Verification Year":2026.0,"Community Area Name":"South Deering","Community Area Number":51,"Ward":7.0,"Latitude":41.7202896,"Longitude":-87.58289821,"Location":"(41.7202896, -87.58289821)"}
{"Building ID":173725,"Address":"2140  N Lincoln Park West","Zip":60614,"Cohort - Sector":"Residential","Cohort - Size":"> 50000 Sq Ft","Verification Year":2023.0,"Community Area Name":"Lincoln Park","Community Area Number":7,"Ward":43.0,"Latitude":41.92201051,"Longitude":-87.65461957,"Location":"(41.92201051, -87.65461957)"}
{"Building ID":140794,"Address":"1546  N Orleans St","Zip":60610,"Cohort - Sector":"Residential","Cohort - Size":"> 50000 Sq Ft","Verification Year":2025.0,"Community Area Name":"Near North Side","Community Area Number":8,"Ward":27.0,"Latitude":41.9037528,"Longitude":-87.63558845,"Location":"(41.9037528, -87.63558845)"}
{"Building ID":160427,"Address":"5844 S Stony Island Ave","Zip":60637,"Cohort - Sector":"Residential","Cohort - Size":"> 250000 Sq Ft","Verification Year":2024.0,"Community Area Name":"Hyde Park","Community Area Number":41,"Ward":5.0,"Latitude":41.78848818,"Longitude":-87.58709504,"Location":"(41.78848818, -87.58709504)"}
{"Building ID":119689,"Address":"303 W Erie St","Zip":60654,"Cohort - Sector":"Commercial","Cohort - Size":"> 50000 Sq Ft","Verification Year":2024.0,"Community Area Name":"Near North Side","Community Area Number":8,"Ward":42.0,"Latitude":41.89392378,"Longitude":-87.6358118,"Location":"(41.89392378, -87.6358118)"}
{"Building ID":251446,"Address":"7316 S Hoyne Ave","Zip":60636,"Cohort - Sector":"Commercial","Cohort - Size":"> 50000 Sq Ft","Verification Year":2023.0,"Community Area Name":"West Englewood","Community Area Number":67,"Ward":17.0,"Latitude":41.76065192,"Longitude":-87.67681265,"Location":"(41.76065192, -87.67681265)"}
{"Building ID":251884,"Address":"5631 S Kimbark Ave","Zip":60637,"Cohort - Sector":"Commercial","Cohort - Size":"> 50000 Sq Ft","Verification Year":2025.0,"Community Area Name":"Hyde Park","Community Area Number":41,"Ward":5.0,"Latitude":41.79231813,"Longitude":-87.59440361,"Location":"(41.79231813, -87.59440361)"}
{"Building ID":160284,"Address":"1255 S Michigan Ave","Zip":60605,"Cohort - Sector":"Residential","Cohort - Size":"> 250000 Sq Ft","Verification Year":2026.0,"Community Area Name":"Near South Side","Community Area Number":33,"Ward":3.0,"Latitude":41.86623341,"Longitude":-87.62362373,"Location":"(41.86623341, -87.62362373)"}
{"Building ID":173821,"Address":"4157  N Clarendon Ave","Zip":60613,"Cohort - Sector":"Residential","Cohort - Size":"> 50000 Sq Ft","Verification Year":2024.0,"Community Area Name":"Uptown","Community Area Number":3,"Ward":46.0,"Latitude":41.95402016,"Longitude":-87.6620278,"Location":"(41.95402016, -87.6620278)"}
{"Building ID":175572,"Address":"3525 W Peterson Ave","Zip":60659,"Cohort - Sector":"Commercial","Cohort - Size":"> 50000 Sq Ft","Verification Year":2024.0,"Community Area Name":"North Park","Community Area Number":13,"Ward":39.0,"Latitude":41.99027368,"Longitude":-87.71702022,"Location":"(41.99027368, -87.71702022)"}
{"Building ID":256616,"Address":"330 W Grand Ave","Zip":60654,"Cohort - Sector":"Residential","Cohort - Size":"> 50000 Sq Ft","Verification Year":2026.0,"Community Area Name":"Lincoln Park","Community Area Number":7,"Ward":42.0,"Latitude":41.89237,"Longitude":-87.636345,"Location":"(41.89237, -87.636345)"}
{"Building ID":163619,"Address":"211 E Ohio St","Zip":60611,"Cohort - Sector":"Residential","Cohort - Size":"> 250000 Sq Ft","Verification Year":2025.0,"Community Area Name":"Near North Side","Community Area Number":8,"Ward":42.0,"Latitude":41.89216271,"Longitude":-87.62132858,"Location":"(41.89216271, -87.62132858)"}
{"Building ID":101547,"Address":"2525 S Michigan Ave","Zip":60616,"Cohort - Sector":"Commercial","Cohort - Size":"> 250000 Sq Ft","Verification Year":2023.0,"Community Area Name":"Near South Side","Community Area Number":33,"Ward":4.0,"Latitude":41.84674735,"Longitude":-87.62133625,"Location":"(41.84674735, -87.62133625)"}
{"Building ID":251382,"Address":"24 W Walton St","Zip":60610,"Cohort - Sector":"Commercial","Cohort - Size":"> 250000 Sq Ft","Verification Year":2025.0,"Community Area Name":"Near North Side","Community Area Number":8,"Ward":2.0,"Latitude":41.90028983,"Longitude":-87.62906231,"Location":"(41.90028983, -87.62906231)"}
{"Building ID":250062,"Address":"558 W De Koven St","Zip":60607,"Cohort - Sector":"Commercial","Cohort - Size":"> 50000 Sq Ft","Verification Year":2024.0,"Community Area Name":"Near West Side","Community Area Number":28,"Ward":25.0,"Latitude":41.86906393,"Longitude":-87.64161425,"Location":"(41.86906393, -87.64161425)"}
{"Building ID":117311,"Address":"6130  N Sheridan Rd","Zip":60660,"Cohort - Sector":"Commercial","Cohort - Size":"> 50000 Sq Ft","Verification Year":2024.0,"Community Area Name":"Edgewater","Community Area Number":77,"Ward":48.0,"Latitude":41.99090057,"Longitude":-87.66660744,"Location":"(41.99090057, -87.66660744)"}
{"Building ID":250067,"Address":"1609 W Chicago Ave","Zip":60622,"Cohort - Sector":"Commercial","Cohort - Size":"> 50000 Sq Ft","Verification Year":2024.0,"Community Area Name":"West Town","Community Area Number":24,"Ward":1.0,"Latitude":41.89604369,"Longitude":-87.6677898,"Location":"(41.89604369, -87.6677898)"}
{"Building ID":160163,"Address":"1366 W Fullerton Ave","Zip":60614,"Cohort - Sector":"Commercial","Cohort - Size":"> 50000 Sq Ft","Verification Year":2024.0,"Community Area Name":"Lincoln Park","Community Area Number":7,"Ward":2.0,"Latitude":41.92526747,"Longitude":-87.66299998,"Location":"(41.92526747, -87.66299998)"}
{"Building ID":256708,"Address":"1115-25 East 58Th Street","Zip":60637,"Cohort - Sector":"Commercial","Cohort - Size":"> 50000 Sq Ft","Verification Year":2023.0,"Community Area Name":"Hyde Park","Community Area Number":41,"Ward":5.0,"Latitude":41.77693,"Longitude":-87.609505,"Location":"(41.77693, -87.609505)"}
{"Building ID":251789,"Address":"2226 N Hoyne Ave","Zip":60647,"Cohort - Sector":"Commercial","Cohort - Size":"> 50000 Sq Ft","Verification Year":2023.0,"Community Area Name":"Logan Square","Community Area Number":22,"Ward":32.0,"Latitude":41.92225236,"Longitude":-87.68068171,"Location":"(41.92225236, -87.68068171)"}
{"Building ID":165062,"Address":"1300 S Lake Shore Dr","Zip":60605,"Cohort - Sector":"Commercial","Cohort - Size":"> 50000 Sq Ft","Verification Year":2026.0,"Community Area Name":"Near South Side","Community Area Number":33,"Ward":4.0,"Latitude":41.86637151,"Longitude":-87.60660909,"Location":"(41.86637151, -87.60660909)"}
{"Building ID":157208,"Address":"400 S Jefferson St","Zip":60607,"Cohort - Sector":"Commercial","Cohort - Size":"> 250000 Sq Ft","Verification Year":2024.0,"Community Area Name":"Near West Side","Community Area Number":28,"Ward":25.0,"Latitude":41.87626348,"Longitude":-87.64310358,"Location":"(41.87626348, -87.64310358)"}
{"Building ID":160381,"Address":"220 W Illinois St","Zip":60654,"Cohort - Sector":"Residential","Cohort - Size":"> 50000 Sq Ft","Verification Year":2025.0,"Community Area Name":"Near North Side","Community Area Number":8,"Ward":42.0,"Latitude":41.89080456,"Longitude":-87.63481335,"Location":"(41.89080456, -87.63481335)"}
{"Building ID":164090,"Address":"2258 N Clybourn Ave","Zip":60614,"Cohort - Sector":"Commercial","Cohort - Size":"> 50000 Sq Ft","Verification Year":2026.0,"Community Area Name":"Lincoln Park","Community Area Number":7,"Ward":2.0,"Latitude":41.92285815,"Longitude":-87.66661993,"Location":"(41.92285815, -87.66661993)"}
{"Building ID":175265,"Address":"3201 3219 W North Ave","Zip":60647,"Cohort - Sector":"Commercial","Cohort - Size":"> 50000 Sq Ft","Verification Year":2023.0,"Community Area Name":"Humboldt Park","Community Area Number":23,"Ward":26.0,"Latitude":41.90988608,"Longitude":-87.70747979,"Location":"(41.90988608, -87.70747979)"}
{"Building ID":174209,"Address":"150  W Superior St","Zip":60654,"Cohort - Sector":"Residential","Cohort - Size":"> 50000 Sq Ft","Verification Year":2025.0,"Community Area Name":"Near North Side","Community Area Number":8,"Ward":2.0,"Latitude":41.89198218,"Longitude":-87.63699623,"Location":"(41.89198218, -87.63699623)"}
{"Building ID":159980,"Address":"7345 S South Shore Dr","Zip":60649,"Cohort - Sector":"Residential","Cohort - Size":"> 50000 Sq Ft","Verification Year":2025.0,"Community Area Name":"South Shore","Community Area Number":43,"Ward":7.0,"Latitude":41.76320454,"Longitude":-87.55907895,"Location":"(41.76320454, -87.55907895)"}
{"Building ID":110854,"Address":"845  N Kingsbury","Zip":60610,"Cohort - Sector":"Residential","Cohort - Size":"> 50000 Sq Ft","Verification Year":2025.0,"Community Area Name":"Near North Side","Community Area Number":8,"Ward":27.0,"Latitude":41.9037528,"Longitude":-87.63558845,"Location":"(41.9037528, -87.63558845)"}
{"Building ID":234838,"Address":"1400 S Michigan Ave","Zip":60605,"Cohort - Sector":"Residential","Cohort - Size":"> 250000 Sq Ft","Verification Year":2026.0,"Community Area Name":"Near South Side","Community Area Number":33,"Ward":3.0,"Latitude":41.86378484,"Longitude":-87.62455468,"Location":"(41.86378484, -87.62455468)"}
{"Building ID":256559,"Address":"5504 S Michigan Ave","Zip":60615,"Cohort - Sector":"Residential","Cohort - Size":"> 50000 Sq Ft","Verification Year":2024.0,"Community Area Name":"Washington Park","Community Area Number":40,"Ward":20.0,"Latitude":41.802305,"Longitude":-87.6025,"Location":"(41.802305, -87.6025)"}
{"Building ID":157165,"Address":"1611 S Racine Ave","Zip":60608,"Cohort - Sector":"Residential","Cohort - Size":"> 50000 Sq Ft","Verification Year":2024.0,"Community Area Name":"Lower West Side","Community Area Number":31,"Ward":25.0,"Latitude":41.85914429,"Longitude":-87.65602559,"Location":"(41.85914429, -87.65602559)"}
{"Building ID":151257,"Address":"2758 2768 N Milwaukee Ave","Zip":60647,"Cohort - Sector":"Residential","Cohort - Size":"> 50000 Sq Ft","Verification Year":2024.0,"Community Area Name":"Logan Square","Community Area Number":22,"Ward":35.0,"Latitude":41.92075046,"Longitude":-87.70152825,"Location":"(41.92075046, -87.70152825)"}
{"Building ID":254165,"Address":"6551 N Sheridan Rd","Zip":60626,"Cohort - Sector":"Residential","Cohort - Size":"> 50000 Sq Ft","Verification Year":2024.0,"Community Area Name":"Rogers Park","Community Area Number":1,"Ward":49.0,"Latitude":42.00163407,"Longitude":-87.66060143,"Location":"(42.00163407, -87.66060143)"}
{"Building ID":175431,"Address":"5123 5135 S University Ave","Zip":60615,"Cohort - Sector":"Residential","Cohort - Size":"> 50000 Sq Ft","Verification Year":2025.0,"Community Area Name":"Hyde Park","Community Area Number":41,"Ward":5.0,"Latitude":41.80224043,"Longitude":-87.60332678,"Location":"(41.80224043, -87.60332678)"}
